stop_id,stop_code,stop_name,stop_desc,stop_lat,stop_lon,zone_id,stop_url,location_type,parent_station,stop_timezone,wheelchair_boarding
26157,26157,40th Ave & Airport Blvd-Gateway Park Stn Gate D,Vehicles Travelling West,39.770084,-104.786985,26157,,0,33740,,1
33820,33820,Longmont,Vehicles Travelling North,40.149505,-105.103068,,,1,,,0
33835,33835,Paradise Hills,Vehicles Travelling North,39.704446,-105.250268,,,1,,,0
24890,24890,Englewood Station,Vehicles Travelling North,39.655904,-104.999736,B,,0,33712,,1
34118,34118,20th St / Welton Station,Vehicles Travelling North,39.748163,-104.986671,,,1,,,0
34313,34313,Union Station Gate B15,Vehicles Travelling Southeast,39.754647,-105.001853,34313,,0,33727,,1
24591,24591,Downtown Boulder Station Gate F,Vehicles Travelling South,40.01698,-105.27697,24591,,0,33700,,1
18960,18960,9th Ave & Clermont St,Vehicles Travelling East,39.730958,-104.936055,18960,,0,,,1
25619,25619,Miller Dr & Pike Rd,Vehicles Travelling South,40.13926,-105.128752,25619,,0,,,1
34578,34578,Florida Station,Vehicles Travelling South,39.689534,-104.828474,C,,0,34679,,1
13960,13960,Thornton Crossroads & 104th Station Gate F,Vehicles Travelling South,39.882055,-104.942018,13960,,0,35365,,1
10158,10158,120th Ave & Washington St,Vehicles Travelling West,39.914235,-104.979087,10158,,0,,,1
10168,10168,12th Ave & Grant St,Vehicles Travelling East,39.735227,-104.983287,10168,,0,,,1
10300,10300,W 17th Ave & Irving St,Vehicles Travelling East,39.743901,-105.029635,10300,,0,,,1
10321,10321,W 17th Ave & Sheridan Blvd,Vehicles Travelling East,39.743921,-105.052763,10321,,0,,,1
10789,10789,29th Ave & Richard Allen Ct,Vehicles Travelling West,39.758237,-104.942404,10789,,0,,,1
10873,10873,W 32nd Ave & Eliot St,Vehicles Travelling East,39.76197,-105.022594,10873,,0,,,1
10933,10933,W 32nd Ave & Zuni St,Vehicles Travelling East,39.761969,-105.015369,10933,,0,,,1
10974,10974,W 38th Ave & Brentwood St,Vehicles Travelling West,39.76944,-105.089886,10974,,0,,,1
11017,11017,W 38th Ave & Miller St,Vehicles Travelling West,39.769333,-105.11505,11017,,0,,,1
11155,11155,W 44th Ave & Knox Ct,Vehicles Travelling East,39.77665,-105.031723,11155,,0,,,1
11204,11204,W 44th Ave & Yarrow St,Vehicles Travelling West,39.776679,-105.084197,11204,,0,,,1
11232,11232,47th Ave & Havana St,Vehicles Travelling West,39.782496,-104.866336,11232,,0,,,1
11241,11241,47th Ave & Lima St,Vehicles Travelling East,39.782318,-104.856265,11241,,0,,,1
11278,11278,48th Ave & Dahlia St,Vehicles Travelling West,39.783502,-104.932022,11278,,0,,,1
11341,11341,W 50th Ave & Lowell Blvd,Vehicles Travelling East,39.787375,-105.034151,11341,,0,,,1
12044,12044,Alameda Ave & S Moline St,Vehicles Travelling East,39.711015,-104.854267,12044,,0,,,1
12058,12058,Alameda Ave & S Olive Way,Vehicles Travelling West,39.711437,-104.906845,12058,,0,,,1
12220,12220,Arapahoe Ave & 48th St,Vehicles Travelling West,40.014857,-105.235411,12220,,0,,,1
12239,12239,Arapahoe Ave & MacArthur Dr,Vehicles Travelling West,40.014875,-105.237901,12239,,0,,,1
12418,12418,W Bowles Ave & S Platte Canyon Rd,Vehicles Travelling East,39.609458,-105.036598,12418,,0,,,1
12653,12653,California St & 25th St,Vehicles Travelling Southwest,39.753465,-104.981579,12653,,0,,,1
12866,12866,Colfax Ave & Cook St,Vehicles Travelling West,39.740237,-104.948043,12866,,0,,,1
12914,12914,W Colfax Ave & Kendall St,Vehicles Travelling West,39.74042,-105.066489,12914,,0,,,1
12931,12931,W Colfax Ave & Miller St,Vehicles Travelling West,39.740334,-105.11377,12931,,0,,,1
13032,13032,Collyer St & 19th Ave,Vehicles Travelling South,40.191898,-105.098164,13032,,0,,,1
13282,13282,W Dartmouth Ave & S Lamar St,Vehicles Travelling East,39.659714,-105.06744,13282,,0,,,1
13386,13386,Downing St & 8th Ave,Vehicles Travelling North,39.729301,-104.972894,13386,,0,,,1
13605,13605,Evans Ave & S Milwaukee St,Vehicles Travelling West,39.678522,-104.952638,13605,,0,,,1
13665,13665,W Exposition Ave & S Irving St,Vehicles Travelling East,39.703967,-105.02929,13665,,0,,,1
13684,13684,W Exposition Ave & S Vallejo St,Vehicles Travelling West,39.703992,-105.013768,13684,,0,,,1
13790,13790,S Federal Blvd & W Belleview Ave,Vehicles Travelling South,39.623469,-105.025645,13790,,0,,,1
14250,14250,Havana St & 8th Ave,Vehicles Travelling North,39.72952,-104.865789,14250,,0,,,1
14259,14259,S Havana St & Dartmouth Ave,Vehicles Travelling South,39.659843,-104.866493,14259,,0,,,1
14681,14681,W Jewell Ave & S Oak St,Vehicles Travelling West,39.682196,-105.118349,14681,,0,,,1
14724,14724,Stout St & W Colfax Ave,Vehicles Travelling Northeast,39.740646,-104.999836,14724,,0,,,1
14817,14817,Kipling St & W 38th Ave,Vehicles Travelling South,39.768445,-105.109776,14817,,0,,,1
15186,15186,Manhattan Dr & Kewanee Dr,Vehicles Travelling North,39.992265,-105.228897,15186,,0,,,1
15279,15279,Maxwell Pl & Pensacola Dr,Vehicles Travelling Northwest,39.792562,-104.821427,15279,,0,,,1
15346,15346,Mississippi Ave & S Elizabeth St,Vehicles Travelling West,39.696613,-104.95613,15346,,0,,,1
15384,15384,Mississippi Ave & S Kalispell St,Vehicles Travelling West,39.69676,-104.802407,15384,,0,,,1
15557,15557,S Monaco Pkwy & Mississippi Ave,Vehicles Travelling North,39.697001,-104.912728,15557,,0,,,1
15617,15617,Moorhead Ave & Ash Ave,Vehicles Travelling Southeast,39.994903,-105.251047,15617,,0,,,1
15934,15934,S Peoria St & Ford Ave,Vehicles Travelling South,39.69976,-104.847298,15934,,0,,,1
16462,16462,Sheridan Blvd & W 26th Ave,Vehicles Travelling South,39.754509,-105.053374,16462,,0,,,1
16477,16477,Sheridan Blvd & W 48th Ave,Vehicles Travelling North,39.784289,-105.053117,16477,,0,,,1
16499,16499,Sheridan Blvd & W 72nd Ave,Vehicles Travelling North,39.827822,-105.053106,16499,,0,,,1
16510,16510,Sheridan Blvd & W 80th Ave,Vehicles Travelling North,39.842258,-105.053092,16510,,0,,,1
16583,16583,S Sheridan Blvd & W Yale Ave,Vehicles Travelling South,39.667034,-105.053399,16583,,0,,,1
16605,16605,Smith Rd & Holly St,Vehicles Travelling East,39.774258,-104.920806,16605,,0,,,1
16612,16612,Smith Rd & Magnolia St,Vehicles Travelling East,39.772937,-104.91155,16612,,0,,,1
16613,16613,Smith Rd & Monaco Pkwy,Vehicles Travelling West,39.77325,-104.913234,16613,,0,,,1
17054,17054,S Wadsworth Blvd & W Girton Ave,Vehicles Travelling North,39.656118,-105.081224,17054,,0,,,1
17061,17061,Wadsworth Blvd & Highland Dr,Vehicles Travelling South,39.728165,-105.081653,17061,,0,,,1
17077,17077,S Wadsworth Blvd & W Louisiana Ave,Vehicles Travelling South,39.692312,-105.081691,17077,,0,,,1
17081,17081,S Wadsworth Blvd & W Mexico Pl,Vehicles Travelling South,39.685531,-105.081563,17081,,0,,,1
17173,17173,Washington St & 50th Ave,Vehicles Travelling North,39.788097,-104.978225,17173,,0,,,1
17188,17188,Washington St & 64th Ave,Vehicles Travelling South,39.812507,-104.978187,17188,,0,,,1
17225,17225,Washington St & Muriel Dr,Vehicles Travelling South,39.896812,-104.977774,17225,,0,,,1
17408,17408,York St & 43rd Ave,Vehicles Travelling South,39.776174,-104.959478,17408,,0,,,1
17892,17892,Broadway & Pleasant St,Vehicles Travelling Northwest,40.009321,-105.275998,17892,,0,,,1
18324,18324,W 92nd Ave & Camenish St,Vehicles Travelling West,39.863581,-105.019956,18324,,0,,,1
18380,18380,S Chambers Rd & Dartmouth Ave,Vehicles Travelling North,39.660799,-104.809807,18380,,0,,,1
18791,18791,Chambers Rd & 13th Ave,Vehicles Travelling North,39.737643,-104.809884,18791,,0,,,1
18866,18866,Leetsdale Dr & S Forest St,Vehicles Travelling Northwest,39.708268,-104.927438,18866,,0,,,1
19039,19039,S University Blvd & Mineral Ave,Vehicles Travelling North,39.574318,-104.960255,19039,,0,,,1
19315,19315,Table Mesa Dr & Yale Rd,Vehicles Travelling Southwest,39.981545,-105.255469,19315,,0,,,1
19386,19386,Arapahoe Ave & Folsom St,Vehicles Travelling East,40.01453,-105.262526,19386,,0,,,1
19390,19390,Gillaspie Dr & Darley Ave,Vehicles Travelling Northwest,39.978846,-105.24943,19390,,0,,,1
19610,19610,S Chambers Rd & Hampden Ave,Vehicles Travelling South,39.652721,-104.810102,19610,,0,,,1
19624,19624,S Chambers Rd & Oxford Ave,Vehicles Travelling North,39.6424,-104.810015,19624,,0,,,1
19834,19834,W Kentucky Ave & S Yates St,Vehicles Travelling West,39.700488,-105.051836,19834,,0,,,1
20006,20006,South Boulder Rd & Edessa Dr,Vehicles Travelling East,39.986894,-105.113382,20006,,0,,,1
20359,20359,Arapahoe Rd & Willow Creek Dr,Vehicles Travelling West,40.014688,-105.166625,20359,,0,,,1
20593,20593,72nd Ave & Brighton Blvd,Vehicles Travelling East,39.827141,-104.928566,20593,,0,,,1
21128,21128,W 112th Ave & Stuart St,Vehicles Travelling East,39.89958,-105.041909,21128,,0,,,1
21463,21463,W 38th Ave & Wyandot St,Vehicles Travelling West,39.769359,-105.014369,21463,,0,,,1
21505,21505,Arapahoe Rd & S Lima St,Vehicles Travelling West,39.595182,-104.857947,21505,,0,,,1
21795,21795,S Colorado Blvd & Cherry Creek N Dr,Vehicles Travelling South,39.706876,-104.940926,21795,,0,,,1
22078,22078,Smith Rd & Poplar St,Vehicles Travelling East,39.772027,-104.90517,22078,,0,,,1
22088,22088,56th Ave & Monaco St,Vehicles Travelling East,39.798272,-104.913102,22088,,0,,,1
22167,22167,13000 Block Colorado Blvd,Vehicles Travelling North,39.931522,-104.940178,22167,,0,,,1
22373,22373,16th Street Mall & Larimer St,Vehicles Travelling Northwest,39.749098,-104.997223,22373,,0,,,1
22953,22953,Brighton Rd & 88th Ave,Vehicles Travelling Southwest,39.856278,-104.911528,22953,,0,,,1
22990,22990,88th Ave & Monroe St,Vehicles Travelling West,39.856103,-104.946299,22990,,0,,,1
24582,24582,W Bowles Ave & S Simms St,Vehicles Travelling East,39.60958,-105.129124,24582,,0,,,1
24782,24782,S Boston St & Peakview Ave,Vehicles Travelling North,39.599132,-104.88065,24782,,0,,,1
24945,24945,Highlands Ranch Pkwy & Westridge Pkwy,Vehicles Travelling East,39.533321,-105.021923,24945,,0,,,1
25024,25024,Inca St & W Dartmouth Ave,Vehicles Travelling North,39.659563,-104.997222,25024,,0,,,1
25036,25036,S Santa Fe Dr & Town Center Dr,Vehicles Travelling North,39.548297,-105.036219,25036,,0,,,1
25372,25372,Colfax Ave & Zeno St,Vehicles Travelling East,39.740015,-104.773573,25372,,0,,,1
25665,25665,Jay St & 30th St,Vehicles Travelling West,40.051107,-105.255257,25665,,0,,,1
25826,25826,W Virginia Ave & S Teller St,Vehicles Travelling East,39.707023,-105.077104,25826,,0,,,1
25838,25838,Platte Maintenance Lot,Vehicles Travelling North,39.769414,-104.986816,25838,,0,,,1
26124,26124,S Ceylon St & Hampden Ave,Vehicles Travelling North,39.653457,-104.763575,26124,,0,,,1
26361,26361,S Buckley Rd & S Olathe Way,Vehicles Travelling South,39.611943,-104.791887,26361,,0,,,1
33075,33075,Quentin St & 16th Ave,Vehicles Travelling North,39.741685,-104.844616,33075,,0,,,1
33208,33208,Downing St & Bruce Randolph Ave,Vehicles Travelling East,39.76408,-104.973465,33208,,0,,,1
33268,33268,S Tower Rd & Evans Ave,Vehicles Travelling South,39.68117,-104.772612,33268,,0,,,1
33371,33371,S Broadway & Floyd Ave,Vehicles Travelling North,39.656238,-104.987535,33371,,0,,,1
33804,33804,104th Ave & Walden St,Vehicles Travelling East,39.885448,-104.775816,33804,,0,,,1
34102,34102,120th Ave & Prairie View High School,Vehicles Travelling West,39.91448,-104.840337,34102,,0,,,1
35281,35281,128th Ave & Bellaire St,Vehicles Travelling West,39.928512,-104.937724,35281,,0,,,1
35356,35356,Youngfield St & W 38th Ave,Vehicles Travelling North,39.766976,-105.142537,35356,,0,,,1
35359,35359,S Lewiston Way & S Jasper Way,Vehicles Travelling North,39.602482,-104.805401,35359,,0,,,1
12509,12509,S Broadway & Dartmouth Ave,Vehicles Travelling Southeast,39.989015,-105.25559,12509,,0,33791,,1
35266,35266,16th & Stout Station,Vehicles Travelling Southwest,39.746121,-104.99284,A,,0,34115,,1
33723,33723,Yale Station,Vehicles Travelling North,39.668779,-104.927566,,,1,,,0
15783,15783,S Parker Rd & S Quebec St,Vehicles Travelling Southeast,39.698197,-104.902885,15783,,0,,,1
25905,25905,Park Meadows Mall,Vehicles Travelling Southeast,39.564328,-104.874702,25905,,0,,,1
34472,34472,Peoria Station Track 2,Vehicles Travelling West,39.767654,-104.850903,B,,0,34502,,1
34530,34530,Clear Creek - Federal Station Track 1,Vehicles Travelling West,39.804019,-105.023739,B,,0,34507,,1
34577,34577,Florida Station,Vehicles Travelling North,39.690358,-104.82847,C,,0,34679,,1
35204,35204,Sky Ridge Station,Vehicles Travelling Southeast,39.532059,-104.870263,C,,0,35243,,1
35245,35245,Ridgegate Parkway Station,Vehicles Travelling North,39.51936,-104.865365,,,1,,,0
10024,10024,W 104th Ave & Quivas St,Vehicles Travelling East,39.88507,-105.007153,10024,,0,,,1
10224,10224,Decatur / Federal Station Gate H,Vehicles Travelling West,39.73805,-105.025753,10224,,0,,,1
10228,10228,W 14th Ave & Galapago St,Vehicles Travelling East,39.738407,-104.996035,10228,,0,,,1
10471,10471,W 1st Ave & Sheridan Blvd,Vehicles Travelling East,39.718158,-105.052736,10471,,0,,,1
10575,10575,23rd Ave & Dexter St,Vehicles Travelling West,39.751103,-104.933099,10575,,0,,,1
10829,10829,30th St & Colorado Ave,Vehicles Travelling South,40.007074,-105.253371,10829,,0,,,1
11005,11005,W 38th Ave & Kendall St,Vehicles Travelling West,39.769423,-105.067135,11005,,0,,,1
11012,11012,W 38th Ave & Lowell Blvd,Vehicles Travelling East,39.769456,-105.034356,11012,,0,,,1
11056,11056,W 38th Ave & Wadsworth Blvd,Vehicles Travelling West,39.769434,-105.082396,11056,,0,,,1
11181,11181,W 44th Ave & Saulsbury St,Vehicles Travelling East,39.776573,-105.075778,11181,,0,,,1
11386,11386,4700 Block W 52nd Ave,Vehicles Travelling West,39.791144,-105.047637,11386,,0,,,1
11413,11413,56th Ave & Holly St,Vehicles Travelling East,39.798246,-104.921894,11413,,0,,,1
11548,11548,6th Ave & Fulton St,Vehicles Travelling West,39.725646,-104.870947,11548,,0,,,1
11636,11636,W 70th Ave & Pecos St,Vehicles Travelling East,39.823542,-105.005701,11636,,0,,,1
11674,11674,W 72nd Ave & Lowell Blvd,Vehicles Travelling East,39.827215,-105.034005,11674,,0,,,1
12030,12030,W Alameda Ave & S Knox Ct,Vehicles Travelling West,39.711331,-105.033414,12030,,0,,,1
12072,12072,W Alameda Ave & S Quail St,Vehicles Travelling West,39.711023,-105.124386,12072,,0,,,1
12105,12105,Alameda Ave & S Ursula Way,Vehicles Travelling East,39.711054,-104.83624,12105,,0,,,1
12207,12207,Arapahoe Ave & 23rd St,Vehicles Travelling West,40.014668,-105.264403,12207,,0,,,1
12272,12272,Arapahoe Rd & S Holly St,Vehicles Travelling East,39.594917,-104.922422,12272,,0,,,1
12327,12327,Bannock St & W 7th Ave,Vehicles Travelling South,39.726995,-104.990364,12327,,0,,,1
12453,12453,6300 Block Broadway,Vehicles Travelling North,39.81064,-104.987388,12453,,0,,,1
12463,12463,Broadway & W 9th Ave,Vehicles Travelling South,39.729734,-104.987564,12463,,0,,,1
12648,12648,S Buckley Rd & Princeton Dr,Vehicles Travelling South,39.641078,-104.79158,12648,,0,,,1
12708,12708,S Chambers Rd & Florida Ave,Vehicles Travelling South,39.688958,-104.810018,12708,,0,,,1
12872,12872,W Colfax Ave & Dudley St,Vehicles Travelling West,39.740334,-105.095153,12872,,0,,,1
13072,13072,Colorado Blvd & 40th Ave,Vehicles Travelling South,39.772359,-104.940682,13072,,0,,,1
13137,13137,Colorado Blvd & Montview Blvd,Vehicles Travelling North,39.747672,-104.940558,13137,,0,,,1
13379,13379,Downing St & 31st Ave,Vehicles Travelling North,39.761073,-104.97327,13379,,0,,,1
13406,13406,S Downing St & Hampden Ave,Vehicles Travelling North,39.653418,-104.97348,13406,,0,,,1
13418,13418,S Downing St & Louisiana Ave,Vehicles Travelling North,39.693481,-104.973357,13418,,0,,,1
13505,13505,Eisenhower Dr & Arapahoe Ave,Vehicles Travelling South,40.013896,-105.232036,13505,,0,,,1
13738,13738,Federal Blvd & W 58th Ave,Vehicles Travelling South,39.802971,-105.025453,13738,,0,,,1
13778,13778,Federal Blvd & W 97th Ave,Vehicles Travelling South,39.872342,-105.025356,13778,,0,,,1
13942,13942,W Florida Ave & S Sheridan Blvd,Vehicles Travelling West,39.689604,-105.053679,13942,,0,,,1
14178,14178,Hampden Ave & S Verbena St,Vehicles Travelling East,39.652976,-104.89153,14178,,0,,,1
14249,14249,Havana St & 6th Ave,Vehicles Travelling South,39.725264,-104.866084,14249,,0,,,1
14409,14409,Huron St & W 102nd Pl,Vehicles Travelling South,39.881175,-104.996772,14409,,0,,,1
14413,14413,11000 Block Huron St,Vehicles Travelling North,39.896995,-104.996551,14413,,0,,,1
14624,14624,Ivy St & 50th Ave,Vehicles Travelling North,39.787251,-104.919842,14624,,0,,,1
14716,14716,Josephine St & 8th Ave,Vehicles Travelling North,39.72938,-104.958999,14716,,0,,,1
15095,15095,S Lowell Blvd & W Kenyon Ave,Vehicles Travelling South,39.649167,-105.034674,15095,,0,,,1
15177,15177,Manhattan Dr & Baseline Rd,Vehicles Travelling South,39.999355,-105.229497,15177,,0,,,1
15242,15242,MLK Blvd & Madison St,Vehicles Travelling West,39.76199,-104.946792,15242,,0,,,1
15946,15946,S Peoria St & Mississippi Ave,Vehicles Travelling South,39.695902,-104.847271,15946,,0,,,1
16112,16112,Quebec St & 11th Ave,Vehicles Travelling North,39.733175,-104.90337,16112,,0,,,1
16174,16174,Quebec St & Montview Blvd,Vehicles Travelling North,39.748034,-104.903374,16174,,0,,,1
16482,16482,Sheridan Blvd & W 52nd Ave,Vehicles Travelling South,39.791605,-105.053364,16482,,0,,,1
16500,16500,Sheridan Blvd & W 72nd Ave,Vehicles Travelling South,39.826648,-105.053627,16500,,0,,,1
16518,16518,Sheridan Blvd & W 84th Ave,Vehicles Travelling North,39.849885,-105.053058,16518,,0,,,1
16836,16836,S University Blvd & Florida Ave,Vehicles Travelling South,39.689013,-104.95943,16836,,0,,,1
17072,17072,S Wadsworth Blvd & W Kentucky Ave,Vehicles Travelling South,39.700477,-105.081626,17072,,0,,,1
17184,17184,6000 Block Washington St,Vehicles Travelling South,39.804701,-104.978155,17184,,0,,,1
17372,17372,Yale Ave & S Xanadu Way,Vehicles Travelling East,39.667507,-104.833737,17372,,0,,,1
17537,17537,Mountain View Ave & Spencer St,Vehicles Travelling East,40.181262,-105.124829,17537,,0,,,1
17610,17610,S Broadway  & Geddes Ave,Vehicles Travelling North,39.584285,-104.988231,17610,,0,,,1
17909,17909,E Spaulding St & Dove St,Vehicles Travelling West,39.99139,-105.084849,17909,,0,,,1
18285,18285,Smoky Hill Rd & S Chambers Rd,Vehicles Travelling Southeast,39.632231,-104.809594,18285,,0,,,1
18303,18303,Smoky Hill Rd & S Buckley Rd,Vehicles Travelling Northwest,39.626422,-104.791948,18303,,0,,,1
18395,18395,Hampden Ave & S Eagle St,Vehicles Travelling West,39.653206,-104.817276,18395,,0,,,1
18813,18813,Albrook Dr & Anaheim Ct,Vehicles Travelling Northwest,39.777591,-104.834548,18813,,0,,,1
18935,18935,Colorado Blvd & 106th Ave,Vehicles Travelling South,39.888551,-104.940347,18935,,0,,,1
19099,19099,US 287 & Lucerne Dr,Vehicles Travelling South,40.010189,-105.103065,19099,,0,,,1
19332,19332,28th St & Valmont Rd,Vehicles Travelling South,40.028417,-105.258572,19332,,0,,,1
19560,19560,Main St & W 117th Ave,Vehicles Travelling South,39.909601,-105.07192,19560,,0,,,1
19618,19618,S Buckley Rd & Smoky Hill Rd,Vehicles Travelling North,39.626817,-104.791368,19618,,0,,,1
19776,19776,Walnut St & 16th St,Vehicles Travelling Northeast,40.017852,-105.274561,19776,,0,,,1
19831,19831,W Ellsworth Ave & Galapago St,Vehicles Travelling West,39.71662,-104.996046,19831,,0,,,1
19845,19845,S Peoria St & Warren Pl,Vehicles Travelling North,39.676887,-104.847094,19845,,0,,,1
19909,19909,S Parker Rd & S Macon St,Vehicles Travelling Northwest,39.661339,-104.856023,19909,,0,,,1
20068,20068,Manhattan Dr & Santa Clara Pl,Vehicles Travelling North,39.996292,-105.229822,20068,,0,,,1
21072,21072,Iliff Ave & S Revere St,Vehicles Travelling West,39.675007,-104.842921,21072,,0,,,1
21121,21121,S Monaco Pkwy & Alaska Dr,Vehicles Travelling North,39.708535,-104.912733,21121,,0,,,1
21130,21130,3800 Block W 112th Ave,Vehicles Travelling West,39.899732,-105.035334,21130,,0,,,1
21183,21183,Airport Blvd & 2nd Ave,Vehicles Travelling South,39.719467,-104.791218,21183,,0,,,1
21241,21241,Florida Ave & S Dayton St,Vehicles Travelling East,39.689198,-104.875619,21241,,0,,,1
21286,21286,US 287 & Empire Rd,Vehicles Travelling South,39.970946,-105.090427,21286,,0,,,1
21724,21724,Federal Blvd & W 96th Ave,Vehicles Travelling North,39.871123,-105.02499,21724,,0,,,1
22035,22035,72nd Ave & Kearney St,Vehicles Travelling East,39.827153,-104.916841,22035,,0,,,1
22440,22440,S Chambers Rd & S Chambers Way,Vehicles Travelling North,39.640515,-104.810055,22440,,0,,,1
22500,22500,Hover St & 21st Ave,Vehicles Travelling South,40.195568,-105.131034,22500,,0,,,1
22674,22674,Sheridan Blvd & W 8th Ave,Vehicles Travelling North,39.729268,-105.053124,22674,,0,,,1
22836,22836,Baseline Rd & Elgin Dr,Vehicles Travelling West,40.000184,-105.143448,22836,,0,,,1
22858,22858,Baseline Rd & Indian Peaks Dr,Vehicles Travelling West,40.000286,-105.124635,22858,,0,,,1
22945,22945,88th Ave & Welby Rd,Vehicles Travelling East,39.856029,-104.953657,22945,,0,,,1
23421,23421,Havana St & 37th Ave,Vehicles Travelling South,39.769545,-104.86589,23421,,0,,,1
23614,23614,W Quincy Ave & S Youngfield St,Vehicles Travelling East,39.638433,-105.142607,23614,,0,,,1
23677,23677,S Chambers Rd & Belleview Ave,Vehicles Travelling North,39.624295,-104.810189,23677,,0,,,1
23686,23686,W 90th Ave & Wadsworth Blvd,Vehicles Travelling West,39.859555,-105.079805,23686,,0,,,1
24395,24395,800 Block S Jason St,Vehicles Travelling South,39.701686,-104.999261,24395,,0,,,1
24880,24880,Highlands Ranch Pkwy & S Santa Fe Dr,Vehicles Travelling East,39.538067,-105.035335,24880,,0,,,1
24966,24966,Highlands Ranch Pkwy & Ridgeglen Way,Vehicles Travelling West,39.548323,-104.986835,24966,,0,,,1
25008,25008,W Grant Ranch Blvd & W Sumac Ave,Vehicles Travelling South,39.615099,-105.064008,25008,,0,,,1
25292,25292,9100 Block Lowry Blvd,Vehicles Travelling East,39.725075,-104.881879,25292,,0,,,1
25667,25667,28th St & Palo Pkwy,Vehicles Travelling North,40.044071,-105.2584,25667,,0,,,1
25802,25802,Exposition Ave & S Sable Blvd,Vehicles Travelling East,39.703794,-104.821203,25802,,0,,,1
25972,25972,Manhattan Cir & South Boulder Rd,Vehicles Travelling Southeast,39.984369,-105.228501,25972,,0,,,1
26220,26220,W 120th Ave & Lamar St,Vehicles Travelling East,39.914071,-105.066455,26220,,0,,,1
26320,26320,49th Ave & Pontiac St,Vehicles Travelling West,39.78538,-104.905273,26320,,0,,,1
33010,33010,Lincoln Ave & S Peoria St,Vehicles Travelling East,39.536213,-104.836563,33010,,0,,,1
33054,33054,W Jewell Ave & S Depew St,Vehicles Travelling West,39.682377,-105.057755,33054,,0,,,1
33914,33914,Nelson Rd & Gooseberry Dr,Vehicles Travelling East,40.152459,-105.158478,33914,,0,,,1
34184,34184,Kansas Ave & S Sherman St,Vehicles Travelling East,40.147278,-105.118711,34184,,0,,,1
34430,34430,S Parker Rd & Warren Ave,Vehicles Travelling Northwest,39.677074,-104.873468,34430,,0,,,1
34562,34562,W Colfax Ave & Oak St,Vehicles Travelling West,39.740323,-105.119315,34562,,0,,,1
34724,34724,S Colorado Blvd & Evans Ave,Vehicles Travelling North,39.678856,-104.940515,34724,,0,,,1
35278,35278,Community Center Dr & 112th Ave,Vehicles Travelling West,39.90016,-104.994333,35278,,0,,,1
26158,26158,40th Ave & Airport Blvd-Gateway Park Stn Gate E,Vehicles Travelling East,39.769651,-104.787109,26158,,0,33740,,1
18001,18001,Longmont PnR,Vehicles Travelling East,40.149175,-105.103039,18001,,0,33820,,1
33832,33832,Nederland,Vehicles Travelling North,39.962279,-105.512878,,,1,,,0
25438,25438,Littleton / Downtown Station,Vehicles Travelling South,39.611761,-105.015065,C,,0,33715,,1
22357,22357,16th Street Mall & California St,Vehicles Travelling Southeast,39.745179,-104.992403,22357,,0,34114,,1
33727,33727,Union Station,Vehicles Travelling North,39.754338,-105.00214,,,1,,,0
17985,17985,Downtown Boulder Station Gate L,Vehicles Travelling Northeast,40.016688,-105.274857,17985,,0,33700,,1
34005,34005,Lincoln Station,Vehicles Travelling North,39.546353,-104.869622,C,,0,33714,,1
15056,15056,Louisiana / Pearl Station Gate A,Vehicles Travelling East,39.692899,-104.977777,15056,,0,33725,,1
34381,34381,16th Street Mall & Market St,Vehicles Travelling Northwest,39.749838,-104.998162,34381,,0,,,1
34526,34526,60th & Sheridan - Arvada Gold Strike Station Track 1,Vehicles Travelling West,39.80364,-105.049564,B,,0,34506,,1
35320,35320,Blake St & Downing St,Vehicles Travelling South,39.77055,-104.973378,35320,,0,34684,,1
10014,10014,W 104th Ave & Croke Dr,Vehicles Travelling East,39.885039,-104.999657,10014,,0,,,1
10050,10050,W 10th Ave & Hooker St,Vehicles Travelling East,39.732913,-105.028345,10050,,0,,,1
10205,10205,13th Ave & Colorado Blvd,Vehicles Travelling West,39.73679,-104.941204,10205,,0,,,1
10287,10287,W 17th Ave & Federal Blvd,Vehicles Travelling West,39.744014,-105.026211,10287,,0,,,1
10600,10600,23rd Ave & Monaco Pkwy,Vehicles Travelling West,39.751109,-104.912696,10600,,0,,,1
11172,11172,W 44th Ave & Pierce St,Vehicles Travelling East,39.776555,-105.071677,11172,,0,,,1
11180,11180,W 44th Ave & Saulsbury St,Vehicles Travelling West,39.776691,-105.076038,11180,,0,,,1
11438,11438,W 58th Ave & Oak St,Vehicles Travelling West,39.801888,-105.119293,11438,,0,,,1
11556,11556,6th Ave & Ivy Ln,Vehicles Travelling East,39.725289,-104.918725,11556,,0,,,1
11673,11673,72nd Ave & Monaco St,Vehicles Travelling West,39.827297,-104.914037,11673,,0,,,1
11842,11842,8th Ave & Detroit St,Vehicles Travelling West,39.729174,-104.954743,11842,,0,,,1
11844,11844,8th Ave & Downing St,Vehicles Travelling West,39.729114,-104.97359,11844,,0,,,1
12045,12045,Alameda Ave & S Moline St,Vehicles Travelling West,39.71124,-104.855096,12045,,0,,,1
12190,12190,S Alton Way & S Clinton St,Vehicles Travelling West,39.70162,-104.877556,12190,,0,,,1
12237,12237,5700 Block Arapahoe Ave,Vehicles Travelling West,40.014762,-105.220185,12237,,0,,,1
12352,12352,Baseline Rd & Inca Pkwy,Vehicles Travelling West,40.000221,-105.240602,12352,,0,,,1
12424,12424,4100 Block Brighton Blvd,Vehicles Travelling North,39.775695,-104.971751,12424,,0,,,1
12510,12510,S Broadway & Dartmouth Ave,Vehicles Travelling North,39.660901,-104.987463,12510,,0,,,1
12756,12756,S Cherry St & Mississippi Ave,Vehicles Travelling North,39.69747,-104.933954,12756,,0,,,1
12953,12953,Colfax Ave & Pearl St,Vehicles Travelling East,39.73994,-104.979594,12953,,0,,,1
13031,13031,Collyer St & 19th Ave,Vehicles Travelling North,40.192622,-105.098038,13031,,0,,,1
13053,13053,Colorado Blvd & 17th Ave,Vehicles Travelling North,39.744314,-104.940581,13053,,0,,,1
13305,13305,W Dartmouth Ave & S Raleigh St,Vehicles Travelling Northeast,39.659404,-105.042817,13305,,0,,,1
13330,13330,W Dartmouth Ave & S Yates St,Vehicles Travelling Northeast,39.656916,-105.04903,13330,,0,,,1
13355,13355,Del Mar Cir W & 6th Ave,Vehicles Travelling South,39.724986,-104.85042,13355,,0,,,1
13384,13384,Downing St & 4th Ave,Vehicles Travelling North,39.722166,-104.972859,13384,,0,,,1
13396,13396,S Downing St & Colorado Ave,Vehicles Travelling South,39.683736,-104.973482,13396,,0,,,1
13504,13504,Eisenhower Dr & Arapahoe Ave,Vehicles Travelling North,40.014192,-105.2319,13504,,0,,,1
13514,13514,S Elati St & Englewood Pkwy,Vehicles Travelling North,39.655719,-104.993439,13514,,0,,,1
13704,13704,Federal Blvd & W 17th Ave,Vehicles Travelling North,39.744283,-105.025117,13704,,0,,,1
13824,13824,Federal Blvd & W 1st Ave,Vehicles Travelling South,39.717654,-105.025271,13824,,0,,,1
13825,13825,S Federal Blvd & W Jefferson Ave,Vehicles Travelling South,39.650587,-105.025372,13825,,0,,,1
14042,14042,Garrison St & Cole Dr,Vehicles Travelling North,39.810515,-105.100152,14042,,0,,,1
14428,14428,Huron St & W 96th Pl,Vehicles Travelling South,39.871594,-104.996766,14428,,0,,,1
14694,14694,W Jewell Ave & S Wadsworth Blvd,Vehicles Travelling West,39.682315,-105.081967,14694,,0,,,1
14807,14807,Kipling St & W 30th Ave,Vehicles Travelling South,39.758821,-105.109718,14807,,0,,,1
14846,14846,Kipling St & W 8th Pl,Vehicles Travelling North,39.730335,-105.109536,14846,,0,,,1
14859,14859,Kipling St & W Colfax Ave,Vehicles Travelling North,39.740562,-105.109433,14859,,0,,,1
14925,14925,Lamar St & W 70th Ave,Vehicles Travelling North,39.824016,-105.067278,14925,,0,,,1
14942,14942,Larimer St & 25th St,Vehicles Travelling Southwest,39.75774,-104.986501,14942,,0,,,1
14994,14994,Lipan St & W 42nd Ave,Vehicles Travelling North,39.774532,-105.001688,14994,,0,,,1
15277,15277,Maxwell Pl & Elkhart St,Vehicles Travelling Northeast,39.794518,-104.814343,15277,,0,,,1
15369,15369,Mississippi Ave & S Havana St,Vehicles Travelling East,39.696432,-104.864628,15369,,0,,,1
15403,15403,Mississippi Ave & S Madison St,Vehicles Travelling West,39.696614,-104.947087,15403,,0,,,1
15423,15423,Mississippi Ave & S Peoria St,Vehicles Travelling West,39.696719,-104.847663,15423,,0,,,1
15424,15424,W Mississippi Ave & S Pierce St,Vehicles Travelling East,39.695868,-105.071797,15424,,0,,,1
15603,15603,Montview Blvd & Trenton St,Vehicles Travelling East,39.747366,-104.895973,15603,,0,,,1
15861,15861,Pecos St & W 96th Ave,Vehicles Travelling North,39.870657,-105.00552,15861,,0,,,1
16192,16192,Quincy Ave & S Tamarac Pkwy,Vehicles Travelling West,39.638765,-104.896849,16192,,0,,,1
16365,16365,1400 Block Sable Blvd,Vehicles Travelling South,39.738078,-104.81951,16365,,0,,,1
16496,16496,Sheridan Blvd & W 64th Ave,Vehicles Travelling South,39.811838,-105.053429,16496,,0,,,1
16574,16574,S Sheridan Blvd & S Zenobia Way,Vehicles Travelling North,39.686355,-105.05307,16574,,0,,,1
16808,16808,S University Blvd & Belleview Ave,Vehicles Travelling South,39.623507,-104.959995,16808,,0,,,1
16860,16860,S University Blvd & Mississippi Ave,Vehicles Travelling South,39.696332,-104.95939,16860,,0,,,1
16883,16883,Ura Ln & W 102nd Ave,Vehicles Travelling North,39.880925,-105.012068,16883,,0,,,1
16919,16919,Valmont Rd & 34th St,Vehicles Travelling West,40.029283,-105.249075,16919,,0,,,1
17022,17022,S Wadsworth Blvd & W Amherst Ave,Vehicles Travelling South,39.665676,-105.081575,17022,,0,,,1
17157,17157,Washington St & 105th Pl,Vehicles Travelling North,39.88804,-104.977592,17157,,0,,,1
17170,17170,Washington St & 47th Ave,Vehicles Travelling South,39.782014,-104.978737,17170,,0,,,1
17189,17189,Washington St & 66th Ave,Vehicles Travelling North,39.81667,-104.97797,17189,,0,,,1
17199,17199,Washington St & 83rd Dr,Vehicles Travelling South,39.846203,-104.978008,17199,,0,,,1
17219,17219,Washington St & Garland Dr,Vehicles Travelling South,39.891193,-104.977796,17219,,0,,,1
17314,17314,W Yale Ave & S Federal Blvd,Vehicles Travelling West,39.66778,-105.025643,17314,,0,,,1
17348,17348,Yale Ave & S Norman Ct,Vehicles Travelling East,39.667569,-104.908775,17348,,0,,,1
17448,17448,S Yosemite St & Oxford Dr,Vehicles Travelling North,39.640666,-104.884923,17448,,0,,,1
17596,17596,S Potomac St & Arkansas Ave,Vehicles Travelling North,39.692491,-104.831148,17596,,0,,,1
17628,17628,S Buckley Rd & Kent Dr,Vehicles Travelling South,39.647711,-104.791448,17628,,0,,,1
17756,17756,Market St & 16th Street Mall,Vehicles Travelling North,39.749677,-104.99839,17756,,0,,,1
17854,17854,Smith Rd & Quentin St,Vehicles Travelling East,39.766827,-104.844164,17854,,0,,,1
17887,17887,Via Appia & South Boulder Rd,Vehicles Travelling North,39.986257,-105.142175,17887,,0,,,1
17965,17965,N Public Rd & E Geneseo St,Vehicles Travelling North,39.999599,-105.090408,17965,,0,,,1
18375,18375,Hampden Ave & S Dawson St,Vehicles Travelling East,39.652973,-104.819418,18375,,0,,,1
18779,18779,S Chambers Rd & Ohio Ave,Vehicles Travelling North,39.701266,-104.809778,18779,,0,,,1
18809,18809,46th Ave & Dearborn St,Vehicles Travelling West,39.779145,-104.821176,18809,,0,,,1
19040,19040,S University Blvd & Jamison Ave,Vehicles Travelling North,39.577421,-104.960263,19040,,0,,,1
19555,19555,W 112th Ave & Newland St,Vehicles Travelling West,39.899956,-105.069647,19555,,0,,,1
19577,19577,120th Ave & Colorado Blvd,Vehicles Travelling West,39.914042,-104.941303,19577,,0,,,1
20030,20030,Bridge St & S 4th Ave,Vehicles Travelling East,39.986718,-104.817754,20030,,0,,,1
20810,20810,Temple Dr & S Wabash St,Vehicles Travelling West,39.632414,-104.889404,20810,,0,,,1
21058,21058,S Depew St & W Jewell Ave,Vehicles Travelling North,39.681627,-105.057199,21058,,0,,,1
21545,21545,Grant St & Eppinger Blvd,Vehicles Travelling North,39.863935,-104.983513,21545,,0,,,1
22227,22227,S Buckley Rd & Quincy Ave,Vehicles Travelling North,39.639078,-104.791304,22227,,0,,,1
22259,22259,Grant St & Eppinger Blvd,Vehicles Travelling South,39.863928,-104.984123,22259,,0,,,1
22292,22292,S Parker Rd & J Morgan Blvd,Vehicles Travelling Northwest,39.485659,-104.758454,22292,,0,,,1
22333,22333,Iliff Ave & S Dayton St,Vehicles Travelling West,39.674866,-104.879092,22333,,0,,,1
22372,22372,16th Street Mall & Lawrence St,Vehicles Travelling Northwest,39.748444,-104.996392,22372,,0,,,1
22647,22647,Arapahoe Rd & 65th St,Vehicles Travelling East,40.014604,-105.200135,22647,,0,,,1
22993,22993,88th Ave & Devonshire Blvd,Vehicles Travelling West,39.856199,-104.956,22993,,0,,,1
23007,23007,W Kenyon Ave & S Lowell Blvd,Vehicles Travelling East,39.649543,-105.036384,23007,,0,,,1
23261,23261,Hover St & 20th St,Vehicles Travelling North,40.193725,-105.130747,23261,,0,,,1
23516,23516,56th Ave & Quebec St,Vehicles Travelling East,39.798307,-104.905316,23516,,0,,,1
23589,23589,Valley Pkwy & Club Dr,Vehicles Travelling Northwest,39.57266,-105.158647,23589,,0,,,1
23598,23598,S Simms St & W Bowles Ave,Vehicles Travelling North,39.610276,-105.128586,23598,,0,,,1
23822,23822,Amherst Ave & Bates Ave,Vehicles Travelling West,39.664374,-104.767662,23822,,0,,,1
23889,23889,Airport Blvd & 10th Ave,Vehicles Travelling North,39.733125,-104.791058,23889,,0,,,1
24000,24000,5200 Block S Wadsworth Blvd,Vehicles Travelling North,39.620861,-105.090989,24000,,0,,,1
24470,24470,Lowry Blvd & Alton Way,Vehicles Travelling East,39.725439,-104.878023,24470,,0,,,1
24579,24579,W Bowles Ave & W Coal Mine Ave,Vehicles Travelling East,39.609454,-105.147082,24579,,0,,,1
24630,24630,Colfax Ave & Zeno St,Vehicles Travelling East,39.740008,-104.777386,24630,,0,,,1
26078,26078,Syracuse St & Montview Blvd,Vehicles Travelling North,39.748306,-104.898616,26078,,0,,,1
26129,26129,S Jordan Rd & Mainstreet,Vehicles Travelling North,39.515445,-104.793248,26129,,0,,,1
26382,26382,Yale Ave & Brown Dr,Vehicles Travelling East,39.667467,-104.794417,26382,,0,,,1
26384,26384,40th Ave & Salida St,Vehicles Travelling West,39.77294,-104.784299,26384,,0,,,1
26407,26407,Montview Blvd & Peoria St,Vehicles Travelling East,39.747325,-104.846453,26407,,0,,,1
33015,33015,Fremont Ave & S Dillon Ct,Vehicles Travelling East,39.585625,-104.821211,33015,,0,,,1
33109,33109,US 287 & Arapahoe Rd,Vehicles Travelling South,40.017138,-105.103104,33109,,0,,,1
33174,33174,19th St & Kalmia Ave,Vehicles Travelling South,40.041334,-105.27284,33174,,0,,,1
33233,33233,Front Range Ave & Broadway,Vehicles Travelling East,40.062838,-105.282576,33233,,0,,,1
33269,33269,S Tower Rd & Evans Ave,Vehicles Travelling North,39.680576,-104.772279,33269,,0,,,1
33474,33474,Huron St & W 88th Ave,Vehicles Travelling South,39.857148,-104.996756,33474,,0,,,1
33476,33476,S Buckley Rd & Harvard Ave,Vehicles Travelling South,39.670574,-104.791189,33476,,0,,,1
34190,34190,S Hover St & Ken Pratt Blvd,Vehicles Travelling South,40.139868,-105.131018,34190,,0,,,1
34719,34719,W 26th Ave & Irving St,Vehicles Travelling West,39.754886,-105.030208,34719,,0,,,1
34783,34783,Via Varra Rd & Midway Blvd,Vehicles Travelling East,39.940652,-105.125048,34783,,0,,,1
34801,34801,Maxwell Pl & Jebel Ct,Vehicles Travelling West,39.794938,-104.749294,34801,,0,,,1
34873,34873,51st Ave & Deephaven Ct,Vehicles Travelling West,39.786826,-104.820596,34873,,0,,,1
18898,18898,Bergen Park PnR,Vehicles Travelling South,39.691522,-105.363129,18898,,0,33792,,1
33104,33104,104th Ave & Revere St,Vehicles Travelling East,39.885025,-104.843093,33104,,0,33786,,1
33703,33703,30th / Downing Station,Vehicles Travelling North,39.758977,-104.973786,,,1,,,0
26280,26280,I-25 & Broadway Station Gate C1,Vehicles Travelling West,39.701951,-104.989791,26280,,0,33686,,1
25428,25428,Empower Field at Mile High Station,Vehicles Travelling Northeast,39.743543,-105.013526,A,,0,34111,,1
34325,34325,Union Station Gate B6,Vehicles Travelling Northwest,39.754218,-105.001627,34325,,0,33727,,1
18513,18513,Alameda Ave & S Harrison St,Vehicles Travelling East,39.71142,-104.941502,18513,,0,,,1
33149,33149,Alameda Ave & S Colorado Blvd Nearside,Vehicles Travelling West,39.711717,-104.940349,33149,,0,,,1
12954,12954,Colfax Ave & Peoria St,Vehicles Travelling East,39.740056,-104.845858,12954,,0,,,1
34232,34232,Decatur-Federal Station,Vehicles Travelling North,39.737418,-105.024806,,,1,,,0
33561,33561,Sheridan Station,Vehicles Travelling West,39.735147,-105.053616,A,,0,34235,,1
34507,34507,Clear Creek / Federal Station,Vehicles Travelling North,39.804819,-105.022624,,,1,,,0
35367,35367,Eastlake /124th Ave,Vehicles Travelling North,39.922525,-104.962657,,,1,,,0
10081,10081,W 10th Ave & Winona Ct,Vehicles Travelling West,39.733125,-105.047719,10081,,0,,,1
10332,10332,W 17th Ave & Wolff St,Vehicles Travelling West,39.744035,-105.049007,10332,,0,,,1
10334,10334,W 17th Ave & Yates St,Vehicles Travelling East,39.743924,-105.051133,10334,,0,,,1
10345,10345,18th Ave & Washington St,Vehicles Travelling West,39.74491,-104.979029,10345,,0,,,1
10595,10595,23rd Ave & Leyden St,Vehicles Travelling East,39.75102,-104.914753,10595,,0,,,1
10717,10717,28th Ave & Steele St,Vehicles Travelling West,39.757021,-104.950448,10717,,0,,,1
10859,10859,W 32nd Ave & Green Ct,Vehicles Travelling Southwest,39.762605,-105.02739,10859,,0,,,1
10898,10898,W 32nd Ave & Meade St,Vehicles Travelling West,39.762186,-105.03605,10898,,0,,,1
11115,11115,W 44th Ave & Chase St,Vehicles Travelling East,39.776524,-105.05637,11115,,0,,,1
11188,11188,W 44th Ave & Tennyson St,Vehicles Travelling West,39.77662,-105.044261,11188,,0,,,1
11284,11284,W 48th Ave & Golden Ct,Vehicles Travelling West,39.783904,-105.061181,11284,,0,,,1
11805,11805,W 88th Ave & Benton St,Vehicles Travelling East,39.856277,-105.056508,11805,,0,,,1
11980,11980,W Alameda Ave & S Depew St,Vehicles Travelling West,39.71127,-105.058347,11980,,0,,,1
11985,11985,Alameda Ave & S Emerson St,Vehicles Travelling East,39.711054,-104.97651,11985,,0,,,1
12053,12053,Alameda Ave & S Nome St,Vehicles Travelling East,39.711041,-104.850293,12053,,0,,,1
12056,12056,W Alameda Ave & S Oak St,Vehicles Travelling West,39.711068,-105.119592,12056,,0,,,1
12104,12104,Alameda Ave & S Revere St,Vehicles Travelling West,39.711282,-104.838104,12104,,0,,,1
12710,12710,S Chambers Rd & Iliff Ave,Vehicles Travelling North,39.675255,-104.809773,12710,,0,,,1
12882,12882,Colfax Ave & Glencoe St,Vehicles Travelling West,39.740237,-104.926114,12882,,0,,,1
13065,13065,Colorado Blvd & 36th Ave,Vehicles Travelling North,39.767293,-104.94042,13065,,0,,,1
13160,13160,Conifer Rd & Dakin St,Vehicles Travelling Southeast,39.837662,-104.990546,13160,,0,,,1
13212,13212,Dahlia St & Bruce Randolph Ave,Vehicles Travelling North,39.76478,-104.931769,13212,,0,,,1
13400,13400,S Downing St & Evans Ave,Vehicles Travelling South,39.67874,-104.973519,13400,,0,,,1
13408,13408,S Downing St & Harvard Ave,Vehicles Travelling North,39.671166,-104.973401,13408,,0,,,1
13655,13655,W Exposition Ave & S Dale Ct,Vehicles Travelling East,39.703855,-105.02126,13655,,0,,,1
13696,13696,Federal Blvd & W 108th Ave,Vehicles Travelling North,39.892346,-105.02491,13696,,0,,,1
13848,13848,S Federal Blvd & W Stanford Dr,Vehicles Travelling North,39.633698,-105.02524,13848,,0,,,1
13851,13851,S Federal Blvd & W Union Ave,Vehicles Travelling North,39.63198,-105.025257,13851,,0,,,1
13957,13957,W Florida Ave & S Xavier St,Vehicles Travelling West,39.689581,-105.050541,13957,,0,,,1
14132,14132,Hampden Ave & S Akron St,Vehicles Travelling West,39.65317,-104.881952,14132,,0,,,1
14202,14202,Harlan St & W 44th Ave,Vehicles Travelling North,39.777043,-105.062432,14202,,0,,,1
14326,14326,Holly St & 38th Ave,Vehicles Travelling North,39.769133,-104.922235,14326,,0,,,1
14842,14842,Kipling St & W 77th Dr,Vehicles Travelling South,39.836793,-105.110128,14842,,0,,,1
14885,14885,S Kipling St & W Montgomery Ave,Vehicles Travelling South,39.618524,-105.110226,14885,,0,,,1
15009,15009,W Littleton Blvd & S Fox St,Vehicles Travelling East,39.61313,-104.995097,15009,,0,,,1
15104,15104,S Lowell Blvd & W Oxford Ave,Vehicles Travelling North,39.642576,-105.034612,15104,,0,,,1
15162,15162,S Main St & St Vrain Greenbelt,Vehicles Travelling North,40.156324,-105.102357,15162,,0,,,1
15196,15196,Mansfield Ave & Nassau Dr,Vehicles Travelling Southwest,39.643243,-104.777555,15196,,0,,,1
15197,15197,S Reservoir Rd & Mansfield Ave,Vehicles Travelling South,39.646038,-104.772111,15197,,0,,,1
15283,15283,Maxwell Pl & Wheeling St,Vehicles Travelling Northwest,39.794743,-104.832471,15283,,0,,,1
15428,15428,Mississippi Ave & S Quebec St,Vehicles Travelling West,39.695721,-104.904023,15428,,0,,,1
15467,15467,W Mississippi Ave & S Wadsworth Blvd,Vehicles Travelling East,39.696496,-105.081053,15467,,0,,,1
15498,15498,Monaco Pkwy & 17th Ave,Vehicles Travelling North,39.744016,-104.912373,15498,,0,,,1
15766,15766,Parfet St & W 8th Ave,Vehicles Travelling South,39.72889,-105.119503,15766,,0,,,1
15863,15863,Pecos St & W 97th Ave,Vehicles Travelling North,39.874159,-105.005482,15863,,0,,,1
16421,16421,Santa Fe Dr & W 8th Ave,Vehicles Travelling North,39.729147,-104.998562,16421,,0,,,1
16481,16481,Sheridan Blvd & W 52nd Ave,Vehicles Travelling North,39.791607,-105.053077,16481,,0,,,1
16517,16517,Sheridan Blvd & W 84th Ave,Vehicles Travelling South,39.849297,-105.053318,16517,,0,,,1
16686,16686,Table Mesa Dr & S Broadway,Vehicles Travelling Northeast,39.984738,-105.250824,16686,,0,,,1
16779,16779,S Union Blvd & W Alameda Ave,Vehicles Travelling North,39.710364,-105.132889,16779,,0,,,1
16831,16831,S University Blvd & Evans Ave,Vehicles Travelling North,39.678782,-104.959244,16831,,0,,,1
16871,16871,S University Blvd & Virginia Ave,Vehicles Travelling South,39.707262,-104.959406,16871,,0,,,1
17128,17128,Ward Rd & W 62nd Ave,Vehicles Travelling North,39.809306,-105.13775,17128,,0,,,1
17844,17844,S Main St & Quebec Ave,Vehicles Travelling South,40.14157,-105.102641,17844,,0,,,1
17857,17857,30th Ave & Abilene St,Vehicles Travelling East,39.756861,-104.825021,17857,,0,,,1
17957,17957,US 287 & Midway Blvd,Vehicles Travelling North,39.923004,-105.090548,17957,,0,,,1
18011,18011,Hwy 119 & Jay Rd,Vehicles Travelling Southwest,40.050452,-105.235313,18011,,0,,,1
18956,18956,S Chambers Rd & Bates Ave,Vehicles Travelling South,39.663289,-104.81011,18956,,0,,,1
19231,19231,W Hampden Ave & S Harlan St,Vehicles Travelling East,39.652925,-105.062222,19231,,0,,,1
19339,19339,Laurel Ave & McIntire St,Vehicles Travelling West,40.004143,-105.2335,19339,,0,,,1
19373,19373,Denver West Pkwy & Denver West Cir,Vehicles Travelling Southwest,39.744923,-105.155376,19373,,0,,,1
19439,19439,21st Ave & Frontier St,Vehicles Travelling West,40.196152,-105.127941,19439,,0,,,1
19690,19690,63rd St & Gunbarrel Ave,Vehicles Travelling South,40.061524,-105.20695,19690,,0,,,1
19964,19964,W Baseline Rd & N Cornelius St,Vehicles Travelling West,40.000289,-105.092289,19964,,0,,,1
20240,20240,S Buckley Rd & Asbury Ave,Vehicles Travelling South,39.680271,-104.791154,20240,,0,,,1
20481,20481,Arizona Ave & S Birch St,Vehicles Travelling East,39.694718,-104.935899,20481,,0,,,1
20642,20642,W 46th Ave & Navajo St,Vehicles Travelling East,39.780111,-105.003825,20642,,0,,,1
20846,20846,45th Ave & Andes Ct,Vehicles Travelling East,39.777885,-104.771668,20846,,0,,,1
21377,21377,York St & 40th Ave,Vehicles Travelling North,39.772382,-104.959326,21377,,0,,,1
21439,21439,27th Way & Moorhead Ave,Vehicles Travelling South,39.998125,-105.260228,21439,,0,,,1
22002,22002,Huron St & Naiad Dr,Vehicles Travelling North,39.887363,-104.996551,22002,,0,,,1
22219,22219,W 1st Ave & Pierce St,Vehicles Travelling East,39.718433,-105.072694,22219,,0,,,1
22298,22298,S University Blvd & Cherryridge Rd,Vehicles Travelling North,39.635137,-104.959504,22298,,0,,,1
22366,22366,16th Street Mall & Welton St,Vehicles Travelling Northwest,39.744507,-104.991086,22366,,0,,,1
22829,22829,Baseline Rd & Ord Dr,Vehicles Travelling East,40.000078,-105.167367,22829,,0,,,1
22835,22835,Baseline Rd & Elgin Dr,Vehicles Travelling East,40.000089,-105.143488,22835,,0,,,1
22986,22986,88th Ave & 89th Ave,Vehicles Travelling West,39.857032,-104.918175,22986,,0,,,1
23672,23672,3800 Block W 112th Ave,Vehicles Travelling East,39.899529,-105.035657,23672,,0,,,1
23699,23699,Chambers Rd & Green Valley Ranch Blvd,Vehicles Travelling North,39.784676,-104.80949,23699,,0,,,1
24253,24253,Front Range Ave & Broadway,Vehicles Travelling East,40.06284,-105.282297,24253,,0,,,1
24350,24350,Wadsworth Pkwy & W 102nd Ave,Vehicles Travelling North,39.882154,-105.096039,24350,,0,,,1
24449,24449,S Ulster Pkwy & Technology Way,Vehicles Travelling South,39.633169,-104.900876,24449,,0,,,1
24573,24573,W Coal Mine Ave & S Simms St,Vehicles Travelling West,39.602593,-105.12963,24573,,0,,,1
24674,24674,S University Blvd & S Colorado Blvd,Vehicles Travelling West,39.544153,-104.943294,24674,,0,,,1
24873,24873,US 85 & 112th Ave,Vehicles Travelling South,39.899281,-104.869082,24873,,0,,,1
25016,25016,W Grant Ranch Blvd & S Newland Way,Vehicles Travelling West,39.616872,-105.069912,25016,,0,,,1
25018,25018,W Grant Ranch Blvd & S Reed Way,Vehicles Travelling West,39.618642,-105.077866,25018,,0,,,1
25170,25170,E Mountain View Ave & Alpine St,Vehicles Travelling West,40.181392,-105.081696,25170,,0,,,1
25338,25338,S Adams St & Ellsworth Ave,Vehicles Travelling South,39.716091,-104.94866,25338,,0,,,1
26014,26014,Bridge St & Eastgate Village Ent,Vehicles Travelling West,39.986899,-104.786402,26014,,0,,,1
26236,26236,W 120th Ave & Chase St,Vehicles Travelling West,39.914343,-105.05828,26236,,0,,,1
26255,26255,Central Park Blvd & 23rd Ave,Vehicles Travelling North,39.749891,-104.886873,26255,,0,,,1
26430,26430,S Jordan Rd & Briarwood Ave,Vehicles Travelling South,39.591803,-104.819363,26430,,0,,,1
26614,26614,Plaza Dr & Centennial Blvd,Vehicles Travelling West,39.559098,-104.990948,26614,,0,,,1
33158,33158,Yale Ave & S Clermont St,Vehicles Travelling East,39.667461,-104.936886,33158,,0,,,1
33197,33197,W Exposition Ave & S Quivas St,Vehicles Travelling East,39.703911,-105.006975,33197,,0,,,1
33540,33540,Mississippi Ave & S Bellaire St,Vehicles Travelling East,39.696517,-104.936789,33540,,0,,,1
33680,33680,Peoria St & 23rd Ave,Vehicles Travelling North,39.751354,-104.846764,33680,,0,,,1
34346,34346,W 50th Ave & Zuni St,Vehicles Travelling West,39.787487,-105.016562,34346,,0,,,1
34743,34743,S Public Rd & Old Laramie Trail,Vehicles Travelling South,39.980361,-105.09064,34743,,0,,,1
34902,34902,Gateway Ave & Fraser Way,Vehicles Travelling West,39.784317,-104.812153,34902,,0,,,1
34946,34946,W 52nd Ave & Allison St,Vehicles Travelling West,39.791179,-105.08656,34946,,0,,,1
35101,35101,Clover Basin Dr & Airport Rd,Vehicles Travelling East,40.143182,-105.148965,35101,,0,,,1
35194,35194,16th St Mall & Wewatta St,Vehicles Travelling Southeast,39.752522,-105.001819,35194,,0,,,1
34003,34003,Nine Mile Station,Vehicles Travelling North,39.657344,-104.845575,C,,0,33719,,1
23205,23205,30th & Downing Station,Vehicles Travelling Northwest,39.759189,-104.973652,23205,,0,33703,,1
16081,16081,S Prince St & W Church Ave Gate E,Vehicles Travelling North,39.611011,-105.016095,16081,,0,33715,,1
33235,33235,Littleton Downtown Station Gate C,Vehicles Travelling North,39.610951,-105.015765,33235,,0,33715,,1
34314,34314,Union Station Gate B16,Vehicles Travelling Southeast,39.75449,-105.001649,34314,,0,33727,,1
14257,14257,Havana St & Colfax Ave,Vehicles Travelling South,39.7398,-104.865942,14257,,0,,,1
34467,34467,40th & Colorado Station Track 1,Vehicles Travelling East,39.776071,-104.942045,A,,0,34500,,1
34520,34520,Arvada Ridge Station Track 1,Vehicles Travelling West,39.792562,-105.111727,B,,0,34505,,1
34582,34582,2nd & Abilene Station,Vehicles Travelling South,39.71895,-104.825879,C,,0,34680,,1
34605,34605,61st & Pena Station Track 1,Vehicles Travelling East,39.807307,-104.783939,C,,0,34685,,1
10176,10176,12th Ave & Madison St,Vehicles Travelling West,39.735165,-104.946462,10176,,0,,,1
10391,10391,19th St & Upland Ave,Vehicles Travelling South,40.052543,-105.27283,10391,,0,,,1
10492,10492,W 1st Ave & Yates St,Vehicles Travelling East,39.718141,-105.050058,10492,,0,,,1
10509,10509,W 20th Ave & Harlan St,Vehicles Travelling East,39.747556,-105.062224,10509,,0,,,1
10591,10591,23rd Ave & Jasmine St,Vehicles Travelling West,39.751132,-104.919082,10591,,0,,,1
10607,10607,23rd Ave & Pratt St,Vehicles Travelling East,40.19947,-105.106607,10607,,0,,,1
10735,10735,29th Ave & Bellaire St,Vehicles Travelling East,39.758256,-104.936959,10735,,0,,,1
10847,10847,30th St & Walnut St,Vehicles Travelling North,40.020784,-105.253512,10847,,0,,,1
10889,10889,W 32nd Ave & Ingalls St,Vehicles Travelling West,39.762141,-105.063818,10889,,0,,,1
11068,11068,38th St & Brighton Blvd,Vehicles Travelling Northwest,39.773244,-104.975691,11068,,0,,,1
11266,11266,W 48th Ave & Chase St,Vehicles Travelling West,39.78389,-105.057044,11266,,0,,,1
11286,11286,48th Ave & Holly St,Vehicles Travelling West,39.78385,-104.923246,11286,,0,,,1
11443,11443,W 58th Ave & Simms St,Vehicles Travelling West,39.801871,-105.129703,11443,,0,,,1
11653,11653,72nd Ave & Clermont St,Vehicles Travelling East,39.827171,-104.934483,11653,,0,,,1
12076,12076,W Alameda Ave & S Quitman St,Vehicles Travelling East,39.71116,-105.040448,12076,,0,,,1
12250,12250,Arapahoe Rd & S Clayton St,Vehicles Travelling East,39.594985,-104.954491,12250,,0,,,1
12500,12500,S Broadway & Colorado Ave,Vehicles Travelling North,39.684251,-104.987441,12500,,0,,,1
12535,12535,S Broadway & Iliff Ave,Vehicles Travelling North,39.675189,-104.987477,12535,,0,,,1
12596,12596,S Broadway & W Sterne Pkwy,Vehicles Travelling South,39.592567,-104.988443,12596,,0,,,1
12612,12612,Broadway & Violet Ave,Vehicles Travelling North,40.054887,-105.282012,12612,,0,,,1
12883,12883,Colfax Ave & Franklin St,Vehicles Travelling East,39.739917,-104.968175,12883,,0,,,1
12939,12939,Colfax Ave & Nome St,Vehicles Travelling West,39.740256,-104.852054,12939,,0,,,1
13058,13058,Colorado Blvd & 23rd Ave,Vehicles Travelling North,39.750804,-104.940523,13058,,0,,,1
13371,13371,Downing St & 20th Ave,Vehicles Travelling North,39.74728,-104.973232,13371,,0,,,1
13385,13385,Downing St & 6th Ave,Vehicles Travelling North,39.725452,-104.972868,13385,,0,,,1
13722,13722,Federal Blvd & W 41st Ave,Vehicles Travelling South,39.773423,-105.025336,13722,,0,,,1
13749,13749,Federal Blvd & W 67th Ave,Vehicles Travelling North,39.818018,-105.025028,13749,,0,,,1
13783,13783,S Federal Blvd & W Amherst Ave,Vehicles Travelling North,39.665654,-105.025017,13783,,0,,,1
13929,13929,W Florida Ave & S Pierce St,Vehicles Travelling East,39.689374,-105.071515,13929,,0,,,1
14023,14023,Galapago St & W 6th Ave,Vehicles Travelling North,39.725992,-104.996308,14023,,0,,,1
14467,14467,Hwy 224 & Clayton St,Vehicles Travelling Southwest,39.830172,-104.954693,14467,,0,,,1
14545,14545,Iliff Ave & S Sable Blvd,Vehicles Travelling West,39.674956,-104.820895,14545,,0,,,1
14546,14546,Iliff Ave & S Syracuse Way,Vehicles Travelling East,39.674767,-104.900727,14546,,0,,,1
14549,14549,Iliff Ave & S Vaughn Way,Vehicles Travelling East,39.67488,-104.837386,14549,,0,,,1
14620,14620,S Irving St & W Oxford Ave,Vehicles Travelling South,39.640764,-105.030021,14620,,0,,,1
14621,14621,S Irving St & W Oxford Ave,Vehicles Travelling North,39.640767,-105.02992,14621,,0,,,1
14648,14648,Jay Rd & Hwy 119,Vehicles Travelling East,40.051003,-105.230082,14648,,0,,,1
14657,14657,W Jewell Ave & S Ammons St,Vehicles Travelling East,39.682147,-105.086976,14657,,0,,,1
14686,14686,W Jewell Ave & S Pierce St,Vehicles Travelling East,39.682095,-105.071656,14686,,0,,,1
14768,14768,Kentucky Ave & S Salida St,Vehicles Travelling East,39.70024,-104.782522,14768,,0,,,1
14864,14864,S Kipling St & W Asbury Dr,Vehicles Travelling South,39.680349,-105.109775,14864,,0,,,1
14973,14973,50th Ave & Lincoln St,Vehicles Travelling North,39.787452,-104.986041,14973,,0,,,1
15199,15199,Mansfield Ave & S Richfield St,Vehicles Travelling Northwest,39.645709,-104.787284,15199,,0,,,1
15287,15287,McIntire St & Pennsylvania Ave,Vehicles Travelling South,40.006279,-105.234121,15287,,0,,,1
15342,15342,W Mississippi Ave & S Depew St,Vehicles Travelling East,39.696706,-105.057877,15342,,0,,,1
15539,15539,S Monaco Pkwy & Hampden Ave,Vehicles Travelling North,39.653687,-104.912777,15539,,0,,,1
15823,15823,Pecos St & W 48th Ave,Vehicles Travelling South,39.784547,-105.00655,15823,,0,,,1
16181,16181,Quebec St & Richthofen Pl,Vehicles Travelling North,39.735076,-104.903401,16181,,0,,,1
16277,16277,Ralston Rd & Rensselaer Dr,Vehicles Travelling Southeast,39.809483,-105.111553,16277,,0,,,1
16691,16691,Table Mesa Dr & Harvard Ln,Vehicles Travelling Southwest,39.985026,-105.251049,16691,,0,,,1
16849,16849,S University Blvd & Iliff Ave,Vehicles Travelling North,39.675113,-104.959315,16849,,0,,,1
16992,16992,Wadsworth Blvd & W 64th Ave,Vehicles Travelling South,39.812417,-105.0815,16992,,0,,,1
17013,17013,Wadsworth Blvd & W 87th Dr,Vehicles Travelling North,39.854799,-105.081522,17013,,0,,,1
17024,17024,S Wadsworth Blvd & W Bayaud Ave,Vehicles Travelling South,39.714444,-105.081618,17024,,0,,,1
17046,17046,S Wadsworth Blvd & W Eastman Pl,Vehicles Travelling North,39.658578,-105.081297,17046,,0,,,1
17176,17176,Washington St & 51st Ave,Vehicles Travelling South,39.788907,-104.978375,17176,,0,,,1
17362,17362,Yale Ave & S Ursula St,Vehicles Travelling East,39.667477,-104.839507,17362,,0,,,1
17388,17388,York St & 18th Ave,Vehicles Travelling North,39.745099,-104.959713,17388,,0,,,1
17396,17396,York St & 28th Ave,Vehicles Travelling North,39.757252,-104.959678,17396,,0,,,1
17601,17601,S Potomac St & Mississippi Ave,Vehicles Travelling South,39.695912,-104.833284,17601,,0,,,1
17703,17703,15th St & Stout St [ Y Stop ],Vehicles Travelling West,39.745549,-104.994948,17703,,0,,,1
18519,18519,Eppinger Blvd & Nagel Dr,Vehicles Travelling Southwest,39.864742,-104.970159,18519,,0,,,1
18874,18874,Colorado Blvd & 112th Ave,Vehicles Travelling North,39.89964,-104.940137,18874,,0,,,1
19030,19030,15th St & Little Raven St,Vehicles Travelling Northwest,39.754696,-105.006788,19030,,0,,,1
19128,19128,Broadway & Glenarm Pl,Vehicles Travelling South,39.746372,-104.987503,19128,,0,,,1
19312,19312,19th St & Iris Ave,Vehicles Travelling South,40.036849,-105.272767,19312,,0,,,1
19848,19848,88th Ave & Pearl St,Vehicles Travelling West,39.856377,-104.981241,19848,,0,,,1
20421,20421,Victorian Dr & Mainstreet,Vehicles Travelling South,39.519656,-104.762856,20421,,0,,,1
20821,20821,W 55th Ave & Vance St,Vehicles Travelling West,39.796336,-105.079697,20821,,0,,,1
21313,21313,S Chambers Rd & Quincy Ave,Vehicles Travelling North,39.639,-104.810081,21313,,0,,,1
21448,21448,S Kalamath St & W Lehigh Ave,Vehicles Travelling North,39.647816,-105.000485,21448,,0,,,1
21454,21454,S Buckley Rd & S Nucla Way,Vehicles Travelling South,39.677535,-104.791167,21454,,0,,,1
21542,21542,Grant St & 98th Pl,Vehicles Travelling South,39.873848,-104.982827,21542,,0,,,1
22353,22353,16th Street Mall & Arapahoe St,Vehicles Travelling Southeast,39.747869,-104.995887,22353,,0,,,1
22562,22562,29th Ave & Franklin St,Vehicles Travelling East,39.758193,-104.967771,22562,,0,,,1
22574,22574,15th St & Wynkoop St,Vehicles Travelling East,39.751033,-105.002397,22574,,0,,,1
22675,22675,Dad Clark Dr & S University Blvd,Vehicles Travelling West,39.560619,-104.960295,22675,,0,,,1
22949,22949,88th Ave & Dahlia St,Vehicles Travelling East,39.856212,-104.931177,22949,,0,,,1
22974,22974,76th Ave & Krameria St,Vehicles Travelling East,39.83443,-104.916322,22974,,0,,,1
23069,23069,S Federal Blvd & W Girard Ave,Vehicles Travelling North,39.655607,-105.025092,23069,,0,,,1
23218,23218,W 38th Ave & Fox St,Vehicles Travelling Southeast,39.769224,-104.99622,23218,,0,,,1
23449,23449,Smoky Hill Rd & S Laredo St,Vehicles Travelling Northwest,39.629491,-104.800925,23449,,0,,,1
23913,23913,S Buckley Rd & Mississippi Ave,Vehicles Travelling South,39.696152,-104.791235,23913,,0,,,1
23927,23927,W 63rd Ave & Wright St,Vehicles Travelling West,39.810931,-105.140666,23927,,0,,,1
24221,24221,120th Ave & Irma Dr,Vehicles Travelling East,39.913868,-104.967548,24221,,0,,,1
24441,24441,500 Block N 111th St,Vehicles Travelling North,40.002993,-105.09325,24441,,0,,,1
25136,25136,W Virginia Ave & S Wadsworth Blvd,Vehicles Travelling West,39.707144,-105.082279,25136,,0,,,1
25159,25159,E Mountain View Ave & Pace St,Vehicles Travelling North,40.18168,-105.074082,25159,,0,,,1
25344,25344,Airport Rd & Buckthorn Dr,Vehicles Travelling East,40.146531,-105.151794,25344,,0,,,1
25444,25444,Broadway & Marine St,Vehicles Travelling North,40.013145,-105.278214,25444,,0,,,1
25451,25451,Quebec St & 36th Ave,Vehicles Travelling South,39.767028,-104.903543,25451,,0,,,1
25653,25653,Kimbark St & Longs Peak Ave,Vehicles Travelling South,40.170402,-105.101263,25653,,0,,,1
25696,25696,40th Ave & Kittridge St,Vehicles Travelling West,39.772946,-104.801354,25696,,0,,,1
25863,25863,Morrison Rd & S Patton Ct,Vehicles Travelling East,39.705806,-105.040314,25863,,0,,,1
25878,25878,Bridge St & S Telluride St,Vehicles Travelling East,39.986663,-104.779979,25878,,0,,,1
25898,25898,Campus Dr & US 287,Vehicles Travelling West,39.967442,-105.088469,25898,,0,,,1
25952,25952,3800 Block W Kenyon Ave,Vehicles Travelling East,39.649566,-105.040933,25952,,0,,,1
26018,26018,88th Ave & Fish Hatchery Rd,Vehicles Travelling East,39.85618,-104.925075,26018,,0,,,1
26363,26363,S Buckley Rd & Maplewood Dr,Vehicles Travelling South,39.604528,-104.787289,26363,,0,,,1
26452,26452,S Jordan Rd & Clark Farms Dr North,Vehicles Travelling North,39.524348,-104.793277,26452,,0,,,1
26453,26453,S Jordan Rd & Rock Brook Blvd,Vehicles Travelling North,39.530329,-104.793283,26453,,0,,,1
26458,26458,S Bellaire St & Mexico Ave,Vehicles Travelling South,39.685441,-104.937426,26458,,0,,,1
26461,26461,S Dahlia St & Jewell Ave,Vehicles Travelling South,39.681812,-104.931737,26461,,0,,,1
33323,33323,Smoky Hill Rd & S Gun Club Rd,Vehicles Travelling West,39.602429,-104.717646,33323,,0,,,1
33484,33484,6400 Block South Boulder Rd,Vehicles Travelling East,39.986107,-105.203522,33484,,0,,,1
33876,33876,Tenino Ave & Manhattan Dr,Vehicles Travelling East,39.996416,-105.229471,33876,,0,,,1
34180,34180,9th Ave & Pratt St,Vehicles Travelling East,40.173846,-105.105004,34180,,0,,,1
34413,34413,1150 Block Prairie Center Pkwy,Vehicles Travelling South,39.969178,-104.77115,34413,,0,,,1
34853,34853,Himalaya Rd & Mitchell Pl,Vehicles Travelling South,39.776959,-104.753972,34853,,0,,,1
34862,34862,Andrews Dr & Billings St,Vehicles Travelling West,39.785281,-104.833299,34862,,0,,,1
23042,23042,Alameda Station,Vehicles Travelling Northwest,39.708706,-104.993143,A,,0,33704,,1
33793,33793,Aspen Park,Vehicles Travelling North,39.541051,-105.298494,,,1,,,0
26193,26193,Nine Mile Station Gate B,Vehicles Travelling Northeast,39.657624,-104.846093,26193,,0,33719,,1
26195,26195,Nine Mile Station Gate D,Vehicles Travelling Northeast,39.657886,-104.845611,26195,,0,33719,,1
17798,17798,8th & Coffman PnR Gate C,Vehicles Travelling South,40.171971,-105.10392,17798,,0,33840,,1
26301,26301,Evans Station Gate B,Vehicles Travelling South,39.678557,-104.992382,26301,,0,33713,,1
26121,26121,Colorado Station Gate A,Vehicles Travelling East,39.679881,-104.938629,26121,,0,33708,,1
34234,34234,Perry Station,Vehicles Travelling North,39.734568,-105.040036,,,1,,,0
33963,33963,Oak Station Gate C,Vehicles Travelling East,39.73749,-105.120309,33963,,0,34239,,1
33966,33966,Red Rocks Community College Station,Vehicles Travelling East,39.725014,-105.151782,B,,0,34240,,1
34738,34738,Peoria Station Gate G,Vehicles Travelling South,39.766232,-104.850903,34738,,0,34502,,1
34559,34559,41st & Fox Station Track 2,Vehicles Travelling South,39.773021,-104.996992,A,,0,34548,,1
10303,10303,W 17th Ave & King St,Vehicles Travelling West,39.743995,-105.033399,10303,,0,,,1
10357,10357,19th Ave & Grant St,Vehicles Travelling East,39.746128,-104.983247,10357,,0,,,1
10449,10449,W 1st Ave & Lamar St,Vehicles Travelling East,39.718458,-105.067013,10449,,0,,,1
10520,10520,W 20th Ave & Marshall St,Vehicles Travelling West,39.747683,-105.06905,10520,,0,,,1
10586,10586,23rd Ave & Holly St,Vehicles Travelling West,39.751132,-104.922766,10586,,0,,,1
10759,10759,29th Ave & Hudson St,Vehicles Travelling West,39.758423,-104.923013,10759,,0,,,1
10819,10819,30th Ave & Scranton St,Vehicles Travelling East,39.758868,-104.841486,10819,,0,,,1
10912,10912,W 32nd Ave & Sheridan Blvd,Vehicles Travelling East,39.762062,-105.052799,10912,,0,,,1
10993,10993,W 38th Ave & High Ct,Vehicles Travelling West,39.769433,-105.076553,10993,,0,,,1
11006,11006,W 38th Ave & Kendall St,Vehicles Travelling East,39.769302,-105.06689,11006,,0,,,1
11124,11124,W 44th Ave & Eaton St,Vehicles Travelling West,39.776689,-105.059591,11124,,0,,,1
11157,11157,W 44th Ave & Lamar St,Vehicles Travelling East,39.776559,-105.067167,11157,,0,,,1
11337,11337,W 50th Ave & Knox Ct,Vehicles Travelling West,39.787556,-105.032873,11337,,0,,,1
11566,11566,6th Ave & Krameria St,Vehicles Travelling East,39.725299,-104.915628,11566,,0,,,1
11602,11602,6th Ave & Gaylord St,Vehicles Travelling East,39.725525,-104.962304,11602,,0,,,1
11603,11603,6th Ave & Washington St,Vehicles Travelling East,39.725555,-104.978388,11603,,0,,,1
11663,11663,W 72nd Ave & Federal Blvd,Vehicles Travelling East,39.827179,-105.024103,11663,,0,,,1
11859,11859,8th Ave & Humboldt St,Vehicles Travelling West,39.729126,-104.969752,11859,,0,,,1
11952,11952,W Alameda Ave & S Ammons St,Vehicles Travelling West,39.711194,-105.087758,11952,,0,,,1
11986,11986,Alameda Ave & S Emerson St,Vehicles Travelling West,39.71115,-104.976647,11986,,0,,,1
12005,12005,W Alameda Ave & S Harlan St,Vehicles Travelling West,39.711262,-105.063355,12005,,0,,,1
12413,12413,W Bowles Ave & Bell Flower Dr,Vehicles Travelling East,39.609549,-105.043592,12413,,0,,,1
12443,12443,S Broadway & W Powers Ave,Vehicles Travelling South,39.616343,-104.98819,12443,,0,,,1
12458,12458,Broadway & 64th Ave,Vehicles Travelling North,39.813148,-104.98736,12458,,0,,,1
12475,12475,Broadway & Alpine Ave,Vehicles Travelling South,40.026273,-105.282194,12475,,0,,,1
13115,13115,S Colorado Blvd & Exposition Ave,Vehicles Travelling South,39.704179,-104.940888,13115,,0,,,1
13293,13293,1800 Block W Dartmouth Ave,Vehicles Travelling West,39.660525,-105.008274,13293,,0,,,1
13415,13415,S Downing St & Kentucky Ave,Vehicles Travelling South,39.699982,-104.973467,13415,,0,,,1
13493,13493,Easter Ave & S University Blvd,Vehicles Travelling West,39.588935,-104.961085,13493,,0,,,1
13606,13606,Evans Ave & S Milwaukee St,Vehicles Travelling East,39.678352,-104.952551,13606,,0,,,1
13756,13756,Federal Blvd & W 74th Ave,Vehicles Travelling South,39.829863,-105.025118,13756,,0,,,1
13784,13784,S Federal Blvd & W Amherst Ave,Vehicles Travelling South,39.664595,-105.025244,13784,,0,,,1
13833,13833,S Federal Blvd & W Louisiana Ave,Vehicles Travelling North,39.69391,-105.024933,13833,,0,,,1
14137,14137,Hampden Ave & S Colorado Blvd,Vehicles Travelling East,39.652894,-104.940188,14137,,0,,,1
14138,14138,Hampden Ave & S Dahlia St,Vehicles Travelling East,39.652953,-104.931017,14138,,0,,,1
14429,14429,Huron St & W 99th Ave,Vehicles Travelling South,39.875126,-104.996776,14429,,0,,,1
14718,14718,Kalamath St & W 10th Ave,Vehicles Travelling South,39.731876,-105.000244,14718,,0,,,1
14945,14945,Larimer St & 32nd St,Vehicles Travelling Southwest,39.764319,-104.97801,14945,,0,,,1
14988,14988,S Lincoln St & Virginia Ave,Vehicles Travelling North,39.707768,-104.986327,14988,,0,,,1
15071,15071,Louisiana Ave & S Yampa Ct,Vehicles Travelling West,39.693118,-104.775055,15071,,0,,,1
15130,15130,Madison St & 28th Ave,Vehicles Travelling South,39.757085,-104.946525,15130,,0,,,1
15151,15151,Main St & 3rd Ave,Vehicles Travelling South,40.163474,-105.102641,15151,,0,,,1
15244,15244,MLK Blvd & Magnolia St,Vehicles Travelling East,39.761774,-104.911194,15244,,0,,,1
15366,15366,Mississippi Ave & S Geneva St,Vehicles Travelling East,39.696445,-104.867957,15366,,0,,,1
15534,15534,S Monaco Pkwy & Exposition Ave,Vehicles Travelling South,39.70454,-104.913025,15534,,0,,,1
15569,15569,S Monaco Pkwy & Yale Ave,Vehicles Travelling North,39.667915,-104.912727,15569,,0,,,1
15652,15652,Mountain View Ave & Vivian St,Vehicles Travelling West,40.181365,-105.119478,15652,,0,,,1
15730,15730,South Golden Rd & Mt Vernon Rd,Vehicles Travelling West,39.734127,-105.179332,15730,,0,,,1
15842,15842,Pecos St & W 70th Ave,Vehicles Travelling North,39.823979,-105.006056,15842,,0,,,1
15925,15925,S Peoria St & Dartmouth Ave,Vehicles Travelling South,39.661401,-104.847418,15925,,0,,,1
15970,15970,Pierce St & W 13th Ave,Vehicles Travelling South,39.735723,-105.072004,15970,,0,,,1
16455,16455,Sheridan Blvd & W 1st Ave,Vehicles Travelling North,39.718911,-105.053154,16455,,0,,,1
16468,16468,Sheridan Blvd & W 35th Ave,Vehicles Travelling North,39.766255,-105.053144,16468,,0,,,1
16520,16520,Sheridan Blvd & Turnpike Dr,Vehicles Travelling Northwest,39.85423,-105.053132,16520,,0,,,1
16589,16589,Simms St & W 8th Ave,Vehicles Travelling South,39.728642,-105.128627,16589,,0,,,1
16661,16661,Stout St & Park Ave,Vehicles Travelling Northeast,39.752555,-104.984287,16661,,0,,,1
16813,16813,S University Blvd & Cherry Hills Dr,Vehicles Travelling South,39.643008,-104.959624,16813,,0,,,1
16838,16838,S University Blvd & Floyd Ave,Vehicles Travelling South,39.656882,-104.959553,16838,,0,,,1
16946,16946,Wadsworth Blvd & W 1st Ave,Vehicles Travelling North,39.71885,-105.081335,16946,,0,,,1
17108,17108,S Wadsworth Blvd & W Woodard Dr,Vehicles Travelling South,39.676063,-105.081589,17108,,0,,,1
17116,17116,Walnut St & 20th St,Vehicles Travelling Northeast,40.018851,-105.269592,17116,,0,,,1
17126,17126,Ward Rd & W 61st Ave,Vehicles Travelling South,39.807296,-105.138027,17126,,0,,,1
17177,17177,5300 Block Washington St,Vehicles Travelling North,39.791912,-104.978187,17177,,0,,,1
17217,17217,Washington St & Explorador Calle,Vehicles Travelling North,39.842425,-104.977765,17217,,0,,,1
17573,17573,Ken Pratt Blvd & S Bowen St,Vehicles Travelling East,40.152234,-105.111595,17573,,0,,,1
17710,17710,17th St & Glenarm [ Y Stop ],Vehicles Travelling East,39.744464,-104.989005,17710,,0,,,1
17779,17779,S Lincoln St & Bayaud Ave,Vehicles Travelling North,39.715045,-104.986201,17779,,0,,,1
17872,17872,N Public Rd & W Geneseo St,Vehicles Travelling South,39.999373,-105.090559,17872,,0,,,1
17996,17996,Hwy 119 & Hwy 52,Vehicles Travelling Northeast,40.089322,-105.18962,17996,,0,,,1
18282,18282,Smoky Hill Rd & Radcliff Dr,Vehicles Travelling Southeast,39.636713,-104.820832,18282,,0,,,1
18331,18331,W 92nd Ave & Raleigh St,Vehicles Travelling West,39.863582,-105.040721,18331,,0,,,1
18836,18836,S Broadway & W Ridge Rd,Vehicles Travelling South,39.590388,-104.988468,18836,,0,,,1
18950,18950,S Buckley Rd & Dartmouth Ave,Vehicles Travelling North,39.659967,-104.790957,18950,,0,,,1
19189,19189,Arapahoe Ave & Foothills Pkwy Nearside,Vehicles Travelling East,40.014444,-105.244343,19189,,0,,,1
19374,19374,14100 Block Denver West Pkwy,Vehicles Travelling Southwest,39.742591,-105.158452,19374,,0,,,1
19416,19416,W 88th Ave & Independence St,Vehicles Travelling West,39.856527,-105.104176,19416,,0,,,1
19551,19551,W 112th Ave & Benton St,Vehicles Travelling West,39.89988,-105.055597,19551,,0,,,1
19747,19747,Longs Peak Ave & Lincoln St,Vehicles Travelling East,40.170314,-105.113812,19747,,0,,,1
20001,20001,52nd Ave & Monroe St,Vehicles Travelling East,39.790925,-104.945206,20001,,0,,,1
20095,20095,Leetsdale Dr & Exposition Ave,Vehicles Travelling Northwest,39.704074,-104.914879,20095,,0,,,1
20125,20125,W 9th Ave & Kalamath St,Vehicles Travelling East,39.730464,-104.999837,20125,,0,,,1
20224,20224,Chambers Rd & 5th Ave,Vehicles Travelling South,39.722826,-104.809992,20224,,0,,,1
20226,20226,S Uravan St & Tennessee Ave,Vehicles Travelling South,39.697533,-104.777892,20226,,0,,,1
21400,21400,72nd Ave & Hwy 2,Vehicles Travelling East,39.827107,-104.915093,21400,,0,,,1
21441,21441,W 8th Ave & Wyandot St,Vehicles Travelling West,39.729389,-105.013733,21441,,0,,,1
21499,21499,Arapahoe Rd & S Peoria St,Vehicles Travelling East,39.594897,-104.848549,21499,,0,,,1
21637,21637,Via Appia & South Boulder Rd,Vehicles Travelling Southwest,39.986395,-105.142337,21637,,0,,,1
21669,21669,Arapahoe Rd & N 101st St,Vehicles Travelling West,40.014761,-105.115897,21669,,0,,,1
21800,21800,W 20th Ave & Benton St,Vehicles Travelling East,39.747548,-105.055334,21800,,0,,,1
21918,21918,Hwy 119 & Hurricane Hill Rd,Vehicles Travelling East,39.968357,-105.48502,21918,,0,,,1
22023,22023,31st St & Ringsby Ct,Vehicles Travelling Northwest,39.768122,-104.985565,22023,,0,,,1
22036,22036,S Picadilly Rd & Dorado Ave,Vehicles Travelling North,39.611754,-104.744607,22036,,0,,,1
22600,22600,Arapahoe Rd & S Galena St,Vehicles Travelling West,39.595171,-104.870726,22600,,0,,,1
22807,22807,Baseline Rd & 55th St,Vehicles Travelling East,40.000039,-105.224578,22807,,0,,,1
22979,22979,80th Ave & Larkwood St,Vehicles Travelling West,39.841769,-104.914581,22979,,0,,,1
23028,23028,10300 Block Arapahoe Rd,Vehicles Travelling East,40.014669,-105.108157,23028,,0,,,1
23456,23456,S Chambers Rd & Smoky Hill Rd,Vehicles Travelling South,39.631991,-104.810456,23456,,0,,,1
23647,23647,Colorado Blvd & Muriel Dr,Vehicles Travelling North,39.896667,-104.940134,23647,,0,,,1
23728,23728,W Exposition Ave & S Zuni St,Vehicles Travelling East,39.703883,-105.015385,23728,,0,,,1
24519,24519,Tower Rd & 22nd Ave,Vehicles Travelling South,39.748817,-104.772472,24519,,0,,,1
24671,24671,S University Blvd & S Crosspointe Dr,Vehicles Travelling West,39.54402,-104.924444,24671,,0,,,1
25188,25188,Chambers Rd & 52nd Ave,Vehicles Travelling North,39.787835,-104.809528,25188,,0,,,1
25212,25212,Hampden Ave & S Sherman St,Vehicles Travelling West,39.653194,-104.985655,25212,,0,,,1
25247,25247,S Yosemite St & Lehigh Ave,Vehicles Travelling South,39.647182,-104.885126,25247,,0,,,1
25892,25892,Exempla Cir & Public Rd,Vehicles Travelling Northwest,39.971947,-105.083778,25892,,0,,,1
25896,25896,Exempla Cir & Public Rd,Vehicles Travelling East,39.972017,-105.084318,25896,,0,,,1
26051,26051,Chestnut St & 19th St,Vehicles Travelling Southwest,39.756984,-104.999681,26051,,0,,,1
26095,26095,28th St & Spruce St,Vehicles Travelling South,40.023492,-105.258565,26095,,0,,,1
26525,26525,Lincoln Ave & 6th St,Vehicles Travelling East,39.536357,-104.813873,26525,,0,,,1
26572,26572,17th Pl & Aurora Ct,Vehicles Travelling West,39.744538,-104.837592,26572,,0,,,1
26646,26646,Collyer St & 4th Ave,Vehicles Travelling North,40.166167,-105.09808,26646,,0,,,1
33035,33035,W 120th Ave & Vrain St,Vehicles Travelling West,39.914282,-105.046861,33035,,0,,,1
33614,33614,Fitzsimons Pkwy & Montview Blvd,Vehicles Travelling South,39.747239,-104.829488,33614,,0,,,1
34349,34349,W 46th Ave & Zuni St,Vehicles Travelling East,39.780121,-105.015311,34349,,0,,,1
34403,34403,Quebec St & 28th Ave,Vehicles Travelling North,39.755745,-104.903242,34403,,0,,,1
34442,34442,MLK Blvd & Niagara St,Vehicles Travelling West,39.762025,-104.910868,34442,,0,,,1
34443,34443,Prairie Center Pkwy Loop,Vehicles Travelling Southwest,39.950426,-104.785025,34443,,0,,,1
34463,34463,W Evans Ave & S Sheridan Blvd,Vehicles Travelling West,39.679212,-105.055225,34463,,0,,,1
34646,34646,Broadway & 70th Ave,Vehicles Travelling South,39.824927,-104.987573,34646,,0,,,1
34806,34806,Maxwell Pl & Netherland St,Vehicles Travelling East,39.795981,-104.739895,34806,,0,,,1
35022,35022,Main St & 8th Ave,Vehicles Travelling North,40.172484,-105.102382,35022,,0,,,1
35226,35226,2200 Block W Hecla Dr,Vehicles Travelling South,39.992269,-105.131461,35226,,0,,,1
35280,35280,112th Ave & Irma Dr,Vehicles Travelling West,39.899582,-104.96475,35280,,0,,,1
26156,26156,40th Ave & Airport Blvd-Gateway Park Stn Gate C,Vehicles Travelling North,39.770081,-104.786684,26156,,0,33740,,1
26160,26160,40th Ave & Airport Blvd-Gateway Park Stn Gate G,Vehicles Travelling East,39.76965,-104.786449,26160,,0,33740,,1
33808,33808,El Rancho,Vehicles Travelling North,39.700022,-105.331002,,,1,,,0
12439,12439,Broadway & 27th Way,Vehicles Travelling Southeast,39.995932,-105.260951,12439,,0,33789,,1
18672,18672,Nine Mile Station Gate A,Vehicles Travelling Northeast,39.657547,-104.846283,18672,,0,33719,,1
26196,26196,Nine Mile Station Gate F,Vehicles Travelling Southwest,39.658014,-104.846143,26196,,0,33719,,1
34706,34706,US 36 / McCaslin Station West Side,Vehicles Travelling South,39.957994,-105.168557,,,1,,,0
25052,25052,US 36 & McCaslin Stn Gate F,Vehicles Travelling Southwest,39.957214,-105.165746,25052,,0,34706,,1
22566,22566,US 36 & Table Mesa Station Gate D,Vehicles Travelling Northeast,39.98687,-105.232758,22566,,0,33743,,1
34136,34136,Cherry Creek,Vehicles Travelling North,39.718122,-104.957349,,,1,,,0
33733,33733,Thornton West Side,Vehicles Travelling South,39.8553,-104.987905,,,1,,,0
13092,13092,Colorado Blvd & Colfax Ave,Vehicles Travelling North,39.741007,-104.940502,13092,,0,,,1
33694,33694,Decatur / Federal Station Gate D,Vehicles Travelling Southeast,39.738056,-105.022653,33694,,0,34232,,1
10076,10076,W 10th Ave & Sheridan Blvd,Vehicles Travelling East,39.733072,-105.052504,10076,,0,,,1
10491,10491,W 1st Ave & Wolff St,Vehicles Travelling East,39.718123,-105.047607,10491,,0,,,1
10525,10525,W 20th Ave & Owens Ct,Vehicles Travelling West,39.747469,-105.121102,10525,,0,,,1
10725,10725,28th St & Iris Ave,Vehicles Travelling South,40.035089,-105.25868,10725,,0,,,1
10727,10727,28th St & Kalmia Ave,Vehicles Travelling North,40.039811,-105.258309,10727,,0,,,1
10820,10820,30th Ave & Uvalda St,Vehicles Travelling East,39.757254,-104.833747,10820,,0,,,1
10834,10834,30th St & Arapahoe Ave,Vehicles Travelling North,40.015299,-105.253563,10834,,0,,,1
10943,10943,Bruce Randolph Ave & Elizabeth St,Vehicles Travelling East,39.764413,-104.955829,10943,,0,,,1
10967,10967,W 38th Ave & Alcott St,Vehicles Travelling East,39.769202,-105.017733,10967,,0,,,1
10980,10980,W 38th Ave & Depew St,Vehicles Travelling East,39.769263,-105.057317,10980,,0,,,1
11055,11055,W 38th Ave & Wadsworth Blvd,Vehicles Travelling East,39.769243,-105.081,11055,,0,,,1
11061,11061,W 38th Ave & Wolff St,Vehicles Travelling West,39.769437,-105.049079,11061,,0,,,1
11094,11094,3600 Block 40th Ave,Vehicles Travelling East,39.772814,-104.94465,11094,,0,,,1
11440,11440,W 58th Ave & Quail St,Vehicles Travelling West,39.80188,-105.123814,11440,,0,,,1
11490,11490,60th Ave & Glencoe St,Vehicles Travelling East,39.805506,-104.926042,11490,,0,,,1
11507,11507,W 64th Ave & Union St,Vehicles Travelling East,39.81262,-105.132383,11507,,0,,,1
11659,11659,W 72nd Ave & Depew St,Vehicles Travelling East,39.826659,-105.058534,11659,,0,,,1
12081,12081,W Alameda Ave & S Routt St,Vehicles Travelling West,39.711056,-105.128387,12081,,0,,,1
12202,12202,Arapahoe Ave & 17th St,Vehicles Travelling West,40.014644,-105.272935,12202,,0,,,1
12216,12216,Arapahoe Ave & 33rd St,Vehicles Travelling East,40.01451,-105.249753,12216,,0,,,1
12546,12546,S Broadway & Kenyon Ave,Vehicles Travelling North,39.650045,-104.987534,12546,,0,,,1
12647,12647,S Buckley Rd & Princeton Dr,Vehicles Travelling North,39.640952,-104.791271,12647,,0,,,1
12900,12900,Colfax Ave & Hudson St,Vehicles Travelling West,39.740238,-104.923931,12900,,0,,,1
12901,12901,Colfax Ave & Idalia Ct,Vehicles Travelling East,39.739991,-104.805713,12901,,0,,,1
12928,12928,W Colfax Ave & Meade St,Vehicles Travelling East,39.740259,-105.035537,12928,,0,,,1
12949,12949,Colfax Ave & Oneida St,Vehicles Travelling West,39.740252,-104.90854,12949,,0,,,1
12950,12950,W Colfax Ave & Oak St,Vehicles Travelling West,39.740322,-105.119452,12950,,0,,,1
13023,13023,W Colfax Ave & Youngfield St,Vehicles Travelling West,39.739752,-105.142089,13023,,0,,,1
13294,13294,1600 Block W Dartmouth Ave,Vehicles Travelling East,39.660414,-105.007175,13294,,0,,,1
13395,13395,S Downing St & Colorado Ave,Vehicles Travelling North,39.684241,-104.973297,13395,,0,,,1
13426,13426,Downing St & Speer Blvd,Vehicles Travelling North,39.719385,-104.973181,13426,,0,,,1
13576,13576,W Evans Ave & S Depew St,Vehicles Travelling East,39.679097,-105.056929,13576,,0,,,1
13734,13734,Federal Blvd & W 54th Ave,Vehicles Travelling North,39.794949,-105.025094,13734,,0,,,1
13813,13813,S Federal Blvd & W Florida Ave,Vehicles Travelling North,39.689857,-105.024936,13813,,0,,,1
13816,13816,S Federal Blvd & W Floyd Ave,Vehicles Travelling North,39.65741,-105.025079,13816,,0,,,1
13852,13852,S Federal Blvd & W Union Ave,Vehicles Travelling South,39.631212,-105.025544,13852,,0,,,1
14266,14266,S Havana St & Florida Ave,Vehicles Travelling South,39.68908,-104.866091,14266,,0,,,1
14435,14435,Huron St & Kennedy Dr,Vehicles Travelling North,39.8935,-104.996553,14435,,0,,,1
14596,14596,Iris Ave & Broadway,Vehicles Travelling East,40.036337,-105.281064,14596,,0,,,1
14622,14622,S Irving St & W Walsh Pl,Vehicles Travelling South,39.703398,-105.029872,14622,,0,,,1
14630,14630,Jackson St & 24th St,Vehicles Travelling East,39.745858,-105.208869,14630,,0,,,1
14650,14650,Jay Rd & Juhls Dr,Vehicles Travelling West,40.05108,-105.221972,14650,,0,,,1
14828,14828,Kipling St & W 51st Pl,Vehicles Travelling North,39.790486,-105.1093,14828,,0,,,1
14892,14892,S Kipling St & S Lakehurst Way,Vehicles Travelling South,39.633675,-105.110061,14892,,0,,,1
14924,14924,Lamar St & W 68th Ave,Vehicles Travelling North,39.81967,-105.067253,14924,,0,,,1
15167,15167,S Main St & Grand Ave,Vehicles Travelling South,40.151707,-105.102701,15167,,0,,,1
15187,15187,Manhattan Dr & South Boulder Rd,Vehicles Travelling North,39.986231,-105.227415,15187,,0,,,1
15198,15198,Mansfield Ave & S Richfield St,Vehicles Travelling Southeast,39.645538,-104.78719,15198,,0,,,1
15648,15648,Mountain View Ave & Stuart St,Vehicles Travelling West,40.181389,-105.128868,15648,,0,,,1
15849,15849,Pecos St & W 76th Ave,Vehicles Travelling South,39.833466,-105.006261,15849,,0,,,1
15898,15898,Peoria St & 25th Ave,Vehicles Travelling South,39.752943,-104.84704,15898,,0,,,1
15929,15929,S Peoria St & Exposition Dr,Vehicles Travelling North,39.704374,-104.847099,15929,,0,,,1
16392,16392,S Sable Blvd & Iliff Ave,Vehicles Travelling North,39.675366,-104.820303,16392,,0,,,1
16402,16402,S Sable Blvd & Mississippi Ave,Vehicles Travelling North,39.697008,-104.819068,16402,,0,,,1
16509,16509,Sheridan Blvd & W 8th Ave,Vehicles Travelling South,39.728212,-105.053375,16509,,0,,,1
16717,16717,Tejon St & W 41st Ave,Vehicles Travelling South,39.772702,-105.011288,16717,,0,,,1
16740,16740,S Teller St & W Cedar Ave,Vehicles Travelling South,39.71218,-105.076932,16740,,0,,,1
16769,16769,Tulsa Ct & Elk Pl,Vehicles Travelling South,39.782264,-104.840634,16769,,0,,,1
17076,17076,S Wadsworth Blvd & W Louisiana Ave,Vehicles Travelling North,39.692652,-105.081444,17076,,0,,,1
17218,17218,Washington St & Garland Dr,Vehicles Travelling North,39.891125,-104.977568,17218,,0,,,1
17443,17443,S Yosemite St & Mansfield Ave,Vehicles Travelling South,39.644393,-104.885192,17443,,0,,,1
17593,17593,S Wheeling Way & S Uvalda St,Vehicles Travelling Southeast,39.694177,-104.83727,17593,,0,,,1
17634,17634,S Main St & Quebec Ave,Vehicles Travelling North,40.141658,-105.102324,17634,,0,,,1
17773,17773,Broadway & 4th Ave,Vehicles Travelling South,39.722192,-104.987628,17773,,0,,,1
17873,17873,S Public Rd & W Chester St,Vehicles Travelling South,39.995447,-105.090518,17873,,0,,,1
18050,18050,W 120th Ave & Pecos St,Vehicles Travelling East,39.913764,-105.005348,18050,,0,,,1
18292,18292,Smoky Hill Rd & S Buckley Rd,Vehicles Travelling Southeast,39.625685,-104.790814,18292,,0,,,1
18319,18319,W 92nd Ave & Pecos St,Vehicles Travelling West,39.863558,-105.006436,18319,,0,,,1
18860,18860,Alameda Ave & S Dayton St,Vehicles Travelling Southwest,39.708991,-104.875785,18860,,0,,,1
19305,19305,Yale Ave & S Quebec St,Vehicles Travelling West,39.667683,-104.904123,19305,,0,,,1
19488,19488,Florida Ave & S Quebec St,Vehicles Travelling East,39.689284,-104.903061,19488,,0,,,1
19566,19566,W 112th Ave & Eaton St,Vehicles Travelling East,39.899688,-105.058176,19566,,0,,,1
19809,19809,63rd St & Nautilus Dr,Vehicles Travelling North,40.061588,-105.206756,19809,,0,,,1
19910,19910,S Parker Rd & S Lansing Way,Vehicles Travelling Northwest,39.663447,-104.858114,19910,,0,,,1
20247,20247,S Buckley Rd & Iliff Ave,Vehicles Travelling North,39.67416,-104.790864,20247,,0,,,1
20376,20376,1st Ave & Downing St,Vehicles Travelling East,39.718144,-104.972827,20376,,0,,,1
20444,20444,7800 Block Iliff Ave,Vehicles Travelling East,39.674667,-104.895119,20444,,0,,,1
20454,20454,S Vance St & W Virginia Ave,Vehicles Travelling North,39.70673,-105.079681,20454,,0,,,1
20537,20537,US 287 & Miramonte Blvd,Vehicles Travelling South,39.934779,-105.090962,20537,,0,,,1
20717,20717,South Boulder Rd & S 55th St,Vehicles Travelling West,39.985986,-105.224097,20717,,0,,,1
20763,20763,W 88th Ave & Lipan St,Vehicles Travelling West,39.85638,-105.001393,20763,,0,,,1
20827,20827,Ralston Rd & Wadsworth Blvd,Vehicles Travelling East,39.801898,-105.08104,20827,,0,,,1
20869,20869,Chambers Rd & Maxwell Pl,Vehicles Travelling South,39.794464,-104.809792,20869,,0,,,1
21239,21239,8800 Block Florida Ave,Vehicles Travelling East,39.68922,-104.885301,21239,,0,,,1
21492,21492,W Ken Caryl Ave & S Alkire St,Vehicles Travelling West,39.580849,-105.134155,21492,,0,,,1
22090,22090,56th Ave & Quebec St,Vehicles Travelling West,39.798538,-104.904122,22090,,0,,,1
22200,22200,S Buckley Rd & Quincy Ave,Vehicles Travelling South,39.636679,-104.791634,22200,,0,,,1
22678,22678,Williams St & 29th Ave,Vehicles Travelling North,39.758003,-104.965895,22678,,0,,,1
22700,22700,Curtis St & 18th St,Vehicles Travelling Northeast,39.748868,-104.992565,22700,,0,,,1
22998,22998,Broadway & North St,Vehicles Travelling North,40.02435,-105.28194,22998,,0,,,1
23004,23004,Arapahoe Rd & Yarrow St,Vehicles Travelling East,40.014619,-105.122161,23004,,0,,,1
23208,23208,Cedar Ave & S Lincoln St,Vehicles Travelling West,39.713009,-104.986864,23208,,0,,,1
23326,23326,17th Ave & Collyer St,Vehicles Travelling East,40.188469,-105.097049,23326,,0,,,1
23414,23414,W 20th Ave & Zang St,Vehicles Travelling East,39.747204,-105.145989,23414,,0,,,1
23809,23809,S Tower Rd & Iliff Ave,Vehicles Travelling South,39.676866,-104.772606,23809,,0,,,1
23812,23812,Amherst Ave & S Tower Rd,Vehicles Travelling East,39.665519,-104.771295,23812,,0,,,1
23835,23835,S Buckley Rd & Yale Ave,Vehicles Travelling North,39.667867,-104.790882,23835,,0,,,1
24574,24574,West Coal Mine Ave & South Van Gordon Way,Vehicles Travelling West,39.601404,-105.137811,24574,,0,,,1
25026,25026,W Oxford Ave & S Clay St,Vehicles Travelling West,39.642334,-105.019776,25026,,0,,,1
25034,25034,S Kalamath St & W Oxford Ave,Vehicles Travelling North,39.642683,-105.000551,25034,,0,,,1
25122,25122,30th St & Baseline Rd,Vehicles Travelling North,40.000596,-105.252947,25122,,0,,,1
25608,25608,Clover Basin Dr & S Hover St,Vehicles Travelling West,40.1442,-105.131927,25608,,0,,,1
25662,25662,Jay Rd & 51st St,Vehicles Travelling West,40.051144,-105.236192,25662,,0,,,1
25738,25738,S Parker Rd & Orchard Rd,Vehicles Travelling South,39.609719,-104.810454,25738,,0,,,1
25881,25881,Park Meadows Dr & S Quebec St,Vehicles Travelling West,39.561373,-104.901018,25881,,0,,,1
26020,26020,Wal-Mart @ Salida St & Tower Rd,Vehicles Travelling East,39.763702,-104.774848,26020,,0,,,1
26235,26235,W 120th Ave & Perry St,Vehicles Travelling West,39.914286,-105.039759,26235,,0,,,1
33037,33037,W 112th Ave & Irving Dr,Vehicles Travelling West,39.899804,-105.028104,33037,,0,,,1
33154,33154,Baseline Rd & Anna Thomas Pkwy,Vehicles Travelling West,40.000291,-105.107662,33154,,0,,,1
33243,33243,S Chamber Rd & Brookstone Dr,Vehicles Travelling South,39.539861,-104.811086,33243,,0,,,1
33374,33374,30th St & Canyon Blvd,Vehicles Travelling North,40.016973,-105.253575,33374,,0,,,1
33415,33415,W Grant Ranch Blvd & W Dorado Dr W,Vehicles Travelling West,39.61684,-105.071399,33415,,0,,,1
33498,33498,Webster Dr & W 84th Way,Vehicles Travelling North,39.853637,-105.080786,33498,,0,,,1
33612,33612,5000 Block S Picadilly St,Vehicles Travelling South,39.62406,-104.738393,33612,,0,,,1
33630,33630,120th Ave & US 85,Vehicles Travelling East,39.914206,-104.858405,33630,,0,,,1
33699,33699,Jay Rd & Lonetree Ct,Vehicles Travelling West,40.051155,-105.247075,33699,,0,,,1
34178,34178,Gay St & 8th Ave,Vehicles Travelling North,40.172541,-105.110137,34178,,0,,,1
34188,34188,Grand Ave & S Bowen St,Vehicles Travelling West,40.15126,-105.113651,34188,,0,,,1
34394,34394,S Santa Fe Dr & Blakeland Dr,Vehicles Travelling South,39.560545,-105.036564,34394,,0,,,1
34402,34402,Pace St & Calais Dr,Vehicles Travelling North,40.197987,-105.074057,34402,,0,,,1
34788,34788,Central Park Blvd & 54th Ave,Vehicles Travelling North,39.79581,-104.884094,34788,,0,,,1
34877,34877,Green Valley Ranch Blvd & Tower Rd,Vehicles Travelling East,39.783567,-104.771601,34877,,0,,,1
34888,34888,Holly St & Smith Rd,Vehicles Travelling South,39.773872,-104.922419,34888,,0,,,1
34895,34895,Hampden Ave & S Biscay St,Vehicles Travelling West,39.653141,-104.768409,34895,,0,,,1
34964,34964,W 57th Ave & Estes St,Vehicles Travelling West,39.800231,-105.096123,34964,,0,,,1
34989,34989,S Parker Rd & Whitaker Pl,Vehicles Travelling North,39.626933,-104.822939,34989,,0,,,1
35228,35228,W Ithaca Ave & S Fox St,Vehicles Travelling East,39.651859,-104.994903,35228,,0,,,1
26256,26256,Alameda Station Gate B,Vehicles Travelling South,39.707777,-104.992252,26256,,0,33704,,1
26258,26258,Alameda Station Gate D,Vehicles Travelling South,39.708096,-104.992459,26258,,0,33704,,1
20352,20352,Genesee PnR,Vehicles Travelling East,39.710784,-105.294047,20352,,0,33810,,1
33838,33838,Pinery,Vehicles Travelling North,39.457477,-104.756527,,,1,,,0
34116,34116,18th St / California Station,Vehicles Travelling North,39.746934,-104.98974,,,1,,,0
26102,26102,Downtown Boulder Station Gate 4,Vehicles Travelling Southeast,40.016794,-105.276458,26102,,0,33700,,1
33707,33707,Broadway Marketplace,Vehicles Travelling North,39.708879,-104.989493,,,1,,,0
33709,33709,County Line Station,Vehicles Travelling North,39.561964,-104.870532,,,1,,,0
26044,26044,Colfax & Federal Transfer Center Gate C,Vehicles Travelling Southeast,39.741443,-105.023966,26044,,0,34137,,1
22086,22086,55th St & Arapahoe Ave,Vehicles Travelling North,40.015143,-105.225287,22086,,0,,,1
33558,33558,Decatur / Federal Station,Vehicles Travelling West,39.737129,-105.024452,A,,0,34232,,1
25116,25116,Boulder Junction at Depot Square Station Gate S2,Vehicles Travelling South,40.023618,-105.2538,25116,,0,34454,,1
34510,34510,Wheat Ridge - Ward Station Track 1,Vehicles Travelling East,39.788077,-105.132658,B,,0,34504,,1
35362,35362,48th Ave/Brighton Blvd @ Nat`L Western Ctr,Vehicles Travelling North,39.784667,-104.967472,,,1,,,0
35247,35247,48th & Brighton-National Western Station Track 1,Vehicles Travelling North,39.785151,-104.96781,A,,0,35362,,1
10073,10073,W 10th Ave & Raleigh St,Vehicles Travelling West,39.733078,-105.042204,10073,,0,,,1
10254,10254,15th St & Central St,Vehicles Travelling Northwest,39.757844,-105.010929,10254,,0,,,1
10307,10307,17th Ave & Logan St,Vehicles Travelling East,39.743198,-104.98209,10307,,0,,,1
10438,10438,1st Ave & Harrison St,Vehicles Travelling West,39.717898,-104.941987,10438,,0,,,1
10457,10457,W 1st Ave & Meade St,Vehicles Travelling East,39.718089,-105.035739,10457,,0,,,1
10524,10524,W 20th Ave & Owens Ct,Vehicles Travelling East,39.74736,-105.120158,10524,,0,,,1
10745,10745,29th Ave & Dahlia St,Vehicles Travelling West,39.758342,-104.932234,10745,,0,,,1
10818,10818,30th Ave & Scranton St,Vehicles Travelling West,39.759009,-104.841739,10818,,0,,,1
10948,10948,Bruce Randolph Ave & Franklin St,Vehicles Travelling East,39.764443,-104.968644,10948,,0,,,1
10963,10963,35th Ave & Elm St,Vehicles Travelling West,39.765636,-104.92986,10963,,0,,,1
11119,11119,W 44th Ave & Depew St,Vehicles Travelling West,39.776661,-105.05782,11119,,0,,,1
11149,11149,W 44th Ave & Jay St,Vehicles Travelling East,39.776543,-105.064517,11149,,0,,,1
11261,11261,47th Ave & York St,Vehicles Travelling East,39.781903,-104.958926,11261,,0,,,1
11338,11338,50th Ave & Locust St,Vehicles Travelling East,39.787378,-104.914084,11338,,0,,,1
11427,11427,Logan Ct & 57th Ave,Vehicles Travelling North,39.79989,-104.98115,11427,,0,,,1
11502,11502,W 64th Ave & Simms St,Vehicles Travelling East,39.812658,-105.128041,11502,,0,,,1
11503,11503,W 64th Ave & Simms St,Vehicles Travelling West,39.812869,-105.129263,11503,,0,,,1
11554,11554,6th Ave & Holly St,Vehicles Travelling East,39.725292,-104.922242,11554,,0,,,1
11570,11570,6th Ave & Moline St,Vehicles Travelling East,39.725505,-104.856561,11570,,0,,,1
12008,12008,Alameda Ave & S Havana St,Vehicles Travelling West,39.711197,-104.866456,12008,,0,,,1
12113,12113,Alameda Ave & S Xapary St,Vehicles Travelling East,39.711051,-104.832001,12113,,0,,,1
12189,12189,S Alton Way & Windsor Gardens Lot 9,Vehicles Travelling East,39.701283,-104.878669,12189,,0,,,1
12252,12252,Arapahoe Rd & S Clermont St,Vehicles Travelling West,39.595134,-104.935318,12252,,0,,,1
12323,12323,Bannock St & W 3rd Ave,Vehicles Travelling North,39.721091,-104.990755,12323,,0,,,1
12342,12342,Baseline Rd & 30th St,Vehicles Travelling East,39.999865,-105.252413,12342,,0,,,1
12519,12519,S Broadway & W Exposition Ave,Vehicles Travelling South,39.704141,-104.987679,12519,,0,,,1
12873,12873,W Colfax Ave & Eaton St,Vehicles Travelling East,39.740246,-105.058509,12873,,0,,,1
12957,12957,W Colfax Ave & Pierce St,Vehicles Travelling East,39.740204,-105.071233,12957,,0,,,1
12966,12966,Colfax Ave & Roosevelt Way,Vehicles Travelling East,39.740052,-104.786787,12966,,0,,,1
13006,13006,Colfax Ave & Willow St,Vehicles Travelling East,39.74005,-104.887671,13006,,0,,,1
13077,13077,Colorado Blvd & 6th Ave,Vehicles Travelling South,39.725395,-104.940837,13077,,0,,,1
13308,13308,W Dartmouth Ave & S Reed St,Vehicles Travelling West,39.661789,-105.074593,13308,,0,,,1
13394,13394,Downing St & Colfax Ave,Vehicles Travelling North,39.740388,-104.973354,13394,,0,,,1
13421,13421,Downing St & MLK Blvd,Vehicles Travelling South,39.761573,-104.973427,13421,,0,,,1
13601,13601,Evans Ave & S Logan St,Vehicles Travelling West,39.678638,-104.983478,13601,,0,,,1
13604,13604,W Evans Ave & S Lowell Blvd,Vehicles Travelling West,39.678651,-105.034698,13604,,0,,,1
13635,13635,W Evans Ave & S Tennyson St,Vehicles Travelling East,39.679563,-105.043747,13635,,0,,,1
13639,13639,Evans Ave & S University Blvd,Vehicles Travelling East,39.678321,-104.959727,13639,,0,,,1
13844,13844,S Federal Blvd & W Radcliff Ave,Vehicles Travelling South,39.636938,-105.025467,13844,,0,,,1
13847,13847,S Federal Blvd & W Stanford Dr,Vehicles Travelling South,39.633604,-105.025524,13847,,0,,,1
13885,13885,W Florida Ave & S Fenton St,Vehicles Travelling East,39.689443,-105.060124,13885,,0,,,1
13949,13949,W Florida Ave & S Upham St,Vehicles Travelling East,39.689379,-105.076346,13949,,0,,,1
14168,14168,Hampden Ave & S. Pearl St,Vehicles Travelling East,39.653066,-104.980349,14168,,0,,,1
14179,14179,Hampden Ave & S Verbena St,Vehicles Travelling West,39.653201,-104.892203,14179,,0,,,1
14225,14225,Havana St & 11th Ave,Vehicles Travelling South,39.733125,-104.865931,14225,,0,,,1
14436,14436,Huron St & Milky Way,Vehicles Travelling North,39.853345,-104.996498,14436,,0,,,1
14452,14452,Wadsworth Pkwy & W 94th Ave,Vehicles Travelling Northwest,39.868034,-105.087625,14452,,0,,,1
14471,14471,70th Ave & Washington St,Vehicles Travelling West,39.82381,-104.979659,14471,,0,,,1
14767,14767,Kentucky Ave & S Rifle Way,Vehicles Travelling West,39.700352,-104.785593,14767,,0,,,1
15054,15054,Louisiana Ave & S Downing St,Vehicles Travelling East,39.692919,-104.973113,15054,,0,,,1
15089,15089,5600 Block S Lowell Blvd,Vehicles Travelling South,39.615178,-105.035827,15089,,0,,,1
15272,15272,Maxwell Pl & Atchison St,Vehicles Travelling Northwest,39.793636,-104.826834,15272,,0,,,1
15446,15446,Mississippi Ave & S Steele St,Vehicles Travelling West,39.696616,-104.949365,15446,,0,,,1
15523,15523,S Monaco Pkwy & Cedar Ave,Vehicles Travelling North,39.713633,-104.912662,15523,,0,,,1
15562,15562,S Monaco Pkwy & S Niagara Way,Vehicles Travelling Northwest,39.643064,-104.912003,15562,,0,,,1
15588,15588,Montview Blvd & Kingston St,Vehicles Travelling West,39.747506,-104.859067,15588,,0,,,1
16364,16364,Sable Blvd & 13th Ave,Vehicles Travelling South,39.736371,-104.819495,16364,,0,,,1
16461,16461,Sheridan Blvd & W 26th Ave,Vehicles Travelling North,39.75513,-105.053146,16461,,0,,,1
16475,16475,Sheridan Blvd & W 41st Ave,Vehicles Travelling South,39.77153,-105.053332,16475,,0,,,1
16973,16973,Wadsworth Blvd & W 46th Ave,Vehicles Travelling South,39.780753,-105.08155,16973,,0,,,1
17064,17064,S Wadsworth Blvd & W Jefferson Ave,Vehicles Travelling South,39.649321,-105.081603,17064,,0,,,1
17155,17155,Washington St & 104th Ave,Vehicles Travelling North,39.88605,-104.977591,17155,,0,,,1
17169,17169,Washington St & 47th Ave,Vehicles Travelling North,39.782115,-104.978489,17169,,0,,,1
17182,17182,Washington St & 58th Ave,Vehicles Travelling South,39.800984,-104.978198,17182,,0,,,1
17412,17412,York St & 8th Ave,Vehicles Travelling South,39.728825,-104.960254,17412,,0,,,1
17594,17594,S Wheeling Way & Louisiana Ave,Vehicles Travelling Southeast,39.692678,-104.83427,17594,,0,,,1
17731,17731,Broadway & W Colfax Ave,Vehicles Travelling South,39.740318,-104.987529,17731,,0,,,1
17826,17826,W 88th Ave & Garrison St,Vehicles Travelling West,39.856487,-105.101075,17826,,0,,,1
18594,18594,Alameda Ave & S Kalispell Way,Vehicles Travelling West,39.707338,-104.801389,18594,,0,,,1
18654,18654,Tufts Ave & S DTC Blvd,Vehicles Travelling Northeast,39.63301,-104.894782,18654,,0,,,1
18718,18718,Canyon Blvd & Pearl St,Vehicles Travelling West,40.014049,-105.294278,18718,,0,,,1
18930,18930,Colorado Blvd & Woodglen Blvd,Vehicles Travelling South,39.907075,-104.940345,18930,,0,,,1
19179,19179,S Broadway & Darley Ave,Vehicles Travelling Southeast,39.980196,-105.245306,19179,,0,,,1
19343,19343,Arapahoe Ave & 63rd St,Vehicles Travelling West,40.014763,-105.207476,19343,,0,,,1
19452,19452,South Boulder Rd & Manhattan Dr,Vehicles Travelling West,39.986033,-105.227765,19452,,0,,,1
19561,19561,Main St & W 116th Ave,Vehicles Travelling South,39.906388,-105.071907,19561,,0,,,1
19660,19660,Flanders Way & 46th Ave,Vehicles Travelling South,39.780327,-104.75908,19660,,0,,,1
19824,19824,Smoky Hill Rd & Pheasant Run Pkwy,Vehicles Travelling Southeast,39.627187,-104.795198,19824,,0,,,1
20093,20093,Englewood Pkwy & S Acoma St,Vehicles Travelling West,39.655026,-104.989193,20093,,0,,,1
20263,20263,Lamar St & W 62nd Ave,Vehicles Travelling South,39.809634,-105.067374,20263,,0,,,1
20269,20269,Lamar St & W 61st Ave,Vehicles Travelling North,39.807399,-105.06725,20269,,0,,,1
20464,20464,Arizona Ave & S Cherry St,Vehicles Travelling West,39.694824,-104.934405,20464,,0,,,1
20779,20779,Knox Ct & W 5th Ave,Vehicles Travelling South,39.724306,-105.032575,20779,,0,,,1
21023,21023,Hwy 119 & 34th St,Vehicles Travelling West,40.03821,-105.249163,21023,,0,,,1
21470,21470,6200 Block W Hampden Ave,Vehicles Travelling West,39.653027,-105.064254,21470,,0,,,1
21536,21536,W Jefferson Ave & S Wadsworth Blvd,Vehicles Travelling East,39.649814,-105.08025,21536,,0,,,1
22017,22017,31st St & Ringsby Ct,Vehicles Travelling Southeast,39.768439,-104.986216,22017,,0,,,1
22818,22818,Baseline Rd & Stearns Ave,Vehicles Travelling Northwest,40.003368,-105.202665,22818,,0,,,1
22828,22828,Baseline Rd & Wewoka Dr,Vehicles Travelling West,40.000174,-105.171002,22828,,0,,,1
22938,22938,56th Ave & Logan St,Vehicles Travelling West,39.798351,-104.982644,22938,,0,,,1
22967,22967,Monaco St & 76th Ave,Vehicles Travelling South,39.834964,-104.912741,22967,,0,,,1
22984,22984,8600 Block Brighton Rd,Vehicles Travelling Northeast,39.852559,-104.915837,22984,,0,,,1
23333,23333,Alpine St & Elliott St,Vehicles Travelling South,40.17326,-105.083159,23333,,0,,,1
23400,23400,20th St & Chestnut St,Vehicles Travelling Southeast,39.757767,-104.998829,23400,,0,,,1
23507,23507,Sheridan Blvd & W 78th Ave,Vehicles Travelling South,39.837516,-105.053402,23507,,0,,,1
23641,23641,100th Ave & Steele St,Vehicles Travelling East,39.877649,-104.949163,23641,,0,,,1
23887,23887,Airport Blvd & 8th Ave,Vehicles Travelling North,39.729878,-104.791039,23887,,0,,,1
24405,24405,W Virginia Ave & S Lipan St,Vehicles Travelling West,39.707616,-105.00036,24405,,0,,,1
24848,24848,Yarmouth Ave & 15th St,Vehicles Travelling West,40.058297,-105.278254,24848,,0,,,1
24960,24960,Highlands Ranch Pkwy & S University Blvd,Vehicles Travelling West,39.544537,-104.945394,24960,,0,,,1
25000,25000,W Crestline Ave & S Wadsworth Blvd,Vehicles Travelling East,39.618206,-105.087742,25000,,0,,,1
25161,25161,Pace St & Red Oak Dr,Vehicles Travelling North,40.184581,-105.074078,25161,,0,,,1
25255,25255,Yale Ave & S Sidney Ct,Vehicles Travelling West,39.667694,-104.899314,25255,,0,,,1
25787,25787,Yarmouth Ave & 17th St,Vehicles Travelling East,40.058175,-105.275994,25787,,0,,,1
25820,25820,Coalton Rd & W Flatirons Crossing Dr,Vehicles Travelling West,39.929009,-105.135598,25820,,0,,,1
26091,26091,Sheridan Blvd & W 1st Ave,Vehicles Travelling South,39.718746,-105.053377,26091,,0,,,1
26213,26213,16th Ave & Aurora Ct,Vehicles Travelling West,39.741428,-104.840049,26213,,0,,,1
26370,26370,S Buckley Rd & Dorado Dr,Vehicles Travelling North,39.613393,-104.791579,26370,,0,,,1
26637,26637,Collyer St & 4th Ave,Vehicles Travelling South,40.165582,-105.098293,26637,,0,,,1
26649,26649,Main St & Crisman Dr,Vehicles Travelling South,40.200842,-105.102647,26649,,0,,,1
33022,33022,Northfield Blvd & Trenton St,Vehicles Travelling West,39.785695,-104.896011,33022,,0,,,1
33164,33164,Bromley Ln & Tower Rd,Vehicles Travelling East,39.972241,-104.766437,33164,,0,,,1
33256,33256,Arapahoe Rd & 111th St,Vehicles Travelling East,40.014623,-105.092745,33256,,0,,,1
33349,33349,Broadway & Blake St,Vehicles Travelling Northwest,39.759382,-104.987509,33349,,0,,,1
33989,33989,W Colfax Ave & Tremont Pl,Vehicles Travelling West,39.740202,-104.992717,33989,,0,,,1
34866,34866,Crown Blvd & 50th Ave,Vehicles Travelling North,39.786583,-104.829551,34866,,0,,,1
35272,35272,7400 Block W Long Dr,Vehicles Travelling North,39.611262,-105.083058,35272,,0,,,1
35277,35277,Community Center Dr & 112th Ave,Vehicles Travelling East,39.899753,-104.99465,35277,,0,,,1
